"last_date","OGC_FID","GEOMETRY","licenses_id","scrape_date","licenseno","status","licensetype","issuedate","exprdate","owner","premisesaddress","segments_id","lon","lat","x","y","city","neighborhood","community","council","tract","business","mailaddress","gcquality","gctype"
"2013-07-09T",1,"","","2013-07-09T",413,"ACTIVE",51,"1951-07-20T","2014-03-31T","MISSION BAY YACHT CLUB INC","1215 EL CARMEL PL, SAN DIEGO, CA  92109",-1,-117.248361242,32.7778467173,6254804.29475,1864266.24383,"NONE","NONE","NONE","NONE","0076.00","","",0,"cns/address"
"2013-07-09T",2,"","","2013-07-09T",1414,"ACTIVE",41,"1978-06-05T","2014-04-30T","FICANO, CONNIE M","9349 MIRA MESA BLVD, SAN DIEGO, CA  92126",-1,-117.123422617,32.9167545657,6293628.59978,1914460.91829,"SndSAN","NONE","NONE","NONE","0083.59","Capriccio Italian Restaurant","",0,"cns/address"
"2013-07-09T",3,"","","2013-07-09T",1419,"ACTIVE",21,"1964-08-18T","2013-09-30T","A O K ENTERPRISES INC","3744 OCEAN VIEW BLVD, SAN DIEGO, CA  92113",-1,-117.113723001,32.7015239712,6295956.46286,1836127.88794,"SndCHU","NONE","NONE","NONE","0035.01","Ocean View Liquor","",0,"cns/address"
"2013-07-09T",4,"","","2013-07-09T",2498,"ACTIVE",21,"1978-01-01T","2013-08-31T","ORAM, AMIR Z","3515 UNIVERSITY AVE, SAN DIEGO, CA  92104",-1,-117.117611882,32.7495240675,6294905.46483,1853601.89491,"SndOCN","NONE","NONE","NONE","0024.01","Market Place The","",0,"cns/address"
"2013-07-09T",5,"","","2013-07-09T",3803,"ACTIVE",48,"1977-05-18T","2014-03-31T","SILVER FOX ASSOCIATES INC","1833 GARNET AVE, SAN DIEGO, CA  92109",-1,-117.236281073,32.8005075859,6258595.20892,1872475.61267,"SndPOW","NONE","NONE","NONE","0079.08","Silver Fox Associates Inc","",0,"cns/address"
"2013-07-09T",6,"","","2013-07-09T",4016,"ACTIVE",21,"1971-06-17T","2013-06-30T","MARCREST INC","3787 INGRAHAM ST, SAN DIEGO, CA  92109",-1,-117.237148711,32.7885597543,6258287.44626,1868131.15513,"SndCAR","NONE","NONE","NONE","0077.02","Crest","",0,"cns/address"
"2013-07-09T",7,"","","2013-07-09T",4261,"ACTIVE",21,"1979-08-20T","2014-01-31T","J C & S INC","4210 MARKET ST, SAN DIEGO, CA  92102",-1,-117.104456353,32.7117286525,6298837.55796,1839817.21672,"SndESC","NONE","NONE","NONE","0034.03","","",0,"cns/address"
"2013-07-09T",8,"","","2013-07-09T",5332,"ACTIVE",21,"1973-01-22T","2014-02-28T","ATTIQ, LOUIS","110 NATIONAL CITY BLVD, NATIONAL CITY, CA  91950",-1,-117.097561682,32.651771558,6300780.96722,1817985.40426,"SndSNM","NONE","NONE","NONE","0219.00","One Ten Liquor & Market","",19,"cns/seginterp"
"2013-07-09T",9,"","","2013-07-09T",6278,"ACTIVE",47,"1977-07-01T","2013-08-31T","BRIGANTINE THE","3263 CAMINO DEL MAR, DEL MAR, CA  92014",-1,-136.17877344,25.9454865109,-1.0,-1.0,"SndENC","NONE","NONE","NONE","0172.00","","7889 OSTROW ST SAN DIEGO, CA  92111-3602",-1,"NONE"
"2013-07-09T",10,"","","2013-07-09T",6555,"ACTIVE",51,"1967-07-01T","2014-05-31T","FLEET RESERVE ASSN BR 62","3638 OCEAN VIEW BLVD, SAN DIEGO, CA  92113",-1,-117.115966281,32.7015034471,6295266.30849,1836126.14478,"SndVIS","NONE","NONE","NONE","0035.01","Fra Club 62","",0,"cns/address"
"2013-07-09T",11,"","","2013-07-09T",6779,"ACTIVE",51,"1968-08-07T","2013-09-30T","MOOSE LODGE ESCONDIDO 1874","25721 JESMOND DENE RD, ESCONDIDO, CA  92026",-1,-117.096124596,33.1700426108,6302753.565,2006547.618,"SndSNT","NONE","NONE","NONE","Tract:","Moose Lodge Escondido 1874","",0,"cns/segmid"
"2013-07-09T",12,"","","2013-07-09T",7375,"ACTIVE",21,"1964-12-15T","2014-05-31T","PALOMAR ENTERPRISE INCORPORATED","302 W MISSION AVE, ESCONDIDO, CA  92025",-1,-117.089835806,33.1293340173,6304558.57996,1991720.59709,"SndELC","NONE","NONE","NONE","0202.14","Holiday Wine Cellar","PO BOX 462947 ESCONDIDO, CA  92046",0,"cns/address"
"2013-07-09T",13,"","","2013-07-09T",7808,"ACTIVE",52,"1967-09-11T","2013-08-31T","AMERICAN LEGION SAN DIEGUITO POST 416","210 W F ST, ENCINITAS, CA  92024",-1,-117.294746834,33.0434280773,6241515.63653,1961032.15049,"SndCOR","NONE","NONE","NONE","0175.01","American Legion Post 416","",10,"cns/address"
"2013-07-09T",14,"","","2013-07-09T",9231,"ACTIVE",57,"1965-11-24T","2014-01-31T","EAGLES LODGE SAN DIEGO AERIE 244","3848 CENTRE ST, SAN DIEGO, CA  92103",-1,-117.148553414,32.7481281109,6285387.84862,1853174.57455,"SndNAT","NONE","NONE","NONE","0007.00","Eagles Lodge San Diego Aerie 244","",0,"cns/address"
"2013-07-09T",15,"","","2013-07-09T",9378,"ACTIVE",47,"1952-09-12T","2013-08-31T","ELKS LODGE CLEMENTINE MCDUFF POST","6 HENSLEY ST, SAN DIEGO, CA  92102",-1,-117.134833116,32.7055217263,6289474.78048,1837636.86096,"SndLAM","NONE","NONE","NONE","0048.00","","PO BOX 740118 SAN DIEGO, CA  92174",0,"cns/address"
"2013-07-09T",16,"","","2013-07-09T",9433,"ACTIVE",47,"1978-01-01T","2014-03-31T","ZOOLOGICAL SOCIETY OF SAN DIEGO","15500 SAN PASQUAL VALLEY RD, SAN DIEGO, CA  92027",-1,-117.002897287,33.0991894372,6331094.32675,1980549.44125,"SndIMP","NONE","NONE","NONE","0207.06","San Diego Zoo Safari Park","PO BOX 120551 SAN DIEGO, CA  92112-0551",0,"cns/address"
"2013-07-09T",17,"","","2013-07-09T",9741,"ACTIVE",51,"1965-04-21T","2014-01-31T","SAN DIEGO MISSION BAY BOAT & SKI CL","2606 N MISSION BAY DR, SAN DIEGO, CA  92109",-1,-117.220333221,32.798225652,6263487.90909,1871599.39394,"SndLEM","NONE","NONE","NONE","0076.00","San Diego Mission Bay Boat & Ski Club","",123,"cns/seginterp"
"2013-07-09T",18,"","","2013-07-09T",9839,"ACTIVE",47,"1979-01-05T","2013-09-30T","BENIHANA INTERNATIONAL INC","477 CAMINO DEL RIO S, SAN DIEGO, CA  92108",-1,-136.17877344,25.9454865109,-1.0,-1.0,"SndSOL","NONE","NONE","NONE","0093.04","","8750 NW 36TH ST, STE 300 MIAMI, FL  33178",-1,"NONE"
"2013-07-09T",19,"","","2013-07-09T",10099,"ACTIVE",21,"1975-10-01T","2013-06-30T","THRIFTY PAYLESS INC","8985 MIRA MESA BLVD, SAN DIEGO, CA  92126",-1,-117.130062545,32.91386547,6291582.09813,1913426.90104,"SndDEL","NONE","NONE","NONE","0083.58","Rite Aid Store 5661","2600 CAPITOL AVE, STE 300 SACRAMENTO, CA  95816-5930",0,"cns/address"
"2013-07-09T",20,"","","2013-07-09T",10333,"ACTIVE",52,"1977-11-01T","2014-03-31T","VFW SILVER STRAND POST 5477","123 PALM AVE, IMPERIAL BEACH, CA  91932",-1,-117.046372293,32.5936141411,6316375.5,1796701.33333,"NONE","NONE","NONE","NONE","0102.00","Veterans Of Foreign Wars","",7,"cns/address"
"2013-07-09T",21,"","","2013-07-09T",11470,"ACTIVE",51,"1951-06-15T","2013-10-31T","MOOSE LODGE 1325","2017-19 S COAST HWY, OCEANSIDE, CA  92054",-1,-117.38892226,33.2026930901,6213290.706,2019279.806,"NONE","NONE","SanMIR","NONE","0181.00","Loyal Order Of Moose 1325","2017 S COAST HWY OCEANSIDE, CA  92054",0,"cns/segmid"
"2013-07-09T",22,"","","2013-07-09T",12392,"ACTIVE",51,"1966-10-11T","2014-02-28T","ELKS CLUB OCEANSIDE 1561","444 COUNTRY CLUB LN, OCEANSIDE, CA  92054",-1,-117.364572307,33.1989226832,6220723.96963,2017827.51348,"NONE","NONE","SanSAN","NONE","0185.09","Oceanside Elks Lodge 1561","",0,"cns/address"
"2013-07-09T",23,"","","2013-07-09T",12436,"ACTIVE",47,"1978-01-01T","2013-06-30T","SIMI, ANGELO","7252 BROADWAY, LEMON GROVE, CA  91945",-1,-117.041554165,32.7428688416,6318271.77734,1850994.42066,"NONE","NONE","SanOTM","NONE","0144.00","","",0,"cns/address"
"2013-07-09T",24,"","","2013-07-09T",12439,"ACTIVE",41,"1979-05-07T","2013-09-30T","M & E RESTAURANT CORP","2622 EL CAMINO REAL, STE B, CARLSBAD, CA  92008",-1,-117.230362928,32.977667729,6261019.797,1936914.786,"NONE","NONE","SanNAV","NONE","0198.03","That Pizza Place","",0,"cns/segmid"
"2013-07-09T",25,"","","2013-07-09T",12614,"ACTIVE",51,"1977-03-01T","2014-04-30T","RANCHO BERNARDO GOLF CLUB","12280 GREENS EAST RD, SAN DIEGO, CA  92128",-1,-117.063417421,33.0344585757,6312376.85567,1957137.03336,"NONE","NONE","SanUNV","NONE","0170.15","Country Club Of Rancho Bernardo The","",0,"cns/address"
"2013-07-09T",26,"","","2013-07-09T",12646,"ACTIVE",51,"1963-06-14T","2013-06-30T","ELKS LODGE ENCINITAS 2243","1393 WINDSOR RD, ENCINITAS, CA  92007",-1,-117.27313296,33.0327683741,6248100.69419,1957088.13093,"NONE","NONE","SanCLA","NONE","0174.04","Elks Lodge Encinitas 2243","",5,"cns/address"
"2013-07-09T",27,"","","2013-07-09T",13289,"ACTIVE",47,"1976-03-01T","2013-09-30T","ANTHONYS FISH GROTTO OF LA MESA","1362 N HARBOR DR, SAN DIEGO, CA  92101",-1,-117.173373882,32.7195747611,6277664.47565,1842852.61728,"NONE","NONE","SanTIR","NONE","0054.00","","5575 LAKE PARK WAY, # 211 LA MESA, CA  91942",2,"cns/address"
"2013-07-09T",28,"","","2013-07-09T",13583,"ACTIVE",21,"1970-10-13T","2013-06-30T","VONS COMPANIES INC THE","870 3RD AVE, CHULA VISTA, CA  91911",-1,-136.17877344,25.9454865109,-1.0,-1.0,"NONE","NONE","SanRAN","NONE","0130.00","Vons 3063","PO BOX 29096 PHOENIX, AZ  85038-9096",-1,"NONE"
"2013-07-09T",29,"","","2013-07-09T",14350,"ACTIVE",48,"1974-12-01T","2013-10-31T","SILVIA, BARBARA C","684 TELEGRAPH CANYON RD, CHULA VISTA, CA  91910",-1,-117.031158124,32.62589762,6321149.54021,1808411.84854,"NONE","NONE","SanRNC","NONE","0133.09","Archway Lounge The","",0,"cns/address"
"2013-07-09T",30,"","","2013-07-09T",14813,"ACTIVE",21,"1970-10-19T","2013-06-30T","VONS COMPANIES INC THE","2800 FLETCHER PKWY, EL CAJON, CA  92020",-1,-116.633056591,33.0467854184,6444286.029,1960865.359,"NONE","NONE","SanLAJ","NONE","0161.00","Vons 2064","PO BOX 29096 PHOENIX, AZ  85038-9096",0,"cns/segmid"
"2013-07-09T",31,"","","2013-07-09T",15041,"ACTIVE",51,"1964-01-30T","2014-01-31T","ELKS LODGE VISTA 1968","1947 E VISTA WAY, VISTA, CA  92084",-1,-117.225026578,33.2296808432,6263513.70725,2028590.81263,"NONE","NONE","SanOAT","NONE","0192.07","","",0,"cns/address"
"2013-07-09T",32,"","","2013-07-09T",15089,"ACTIVE",21,"1965-02-25T","2013-06-30T","THRIFTY PAYLESS INC","400 N 2ND ST, EL CAJON, CA  92021",-1,-136.17877344,25.9454865109,-1.0,-1.0,"NONE","NONE","SanPEN","NONE","0157.01","Rite Aid Store 5626","2600 CAPITOL AVE, STE 300 SACRAMENTO, CA  95816-5930",-1,"NONE"
"2013-07-09T",33,"","","2013-07-09T",15367,"ACTIVE",48,"1952-10-10T","2013-07-31T","UNITED PORTUGUESE S E S INC","2818 AVENIDA DE PORTUGAL, SAN DIEGO, CA  92106",-1,-136.17877344,25.9454865109,-1.0,-1.0,"NONE","NONE","SanBLA","NONE","0214.00","","",-1,"NONE"
"2013-07-09T",34,"","","2013-07-09T",16286,"ACTIVE",48,"1972-07-10T","2014-06-30T","AMERICAN LEGION LINDA VISTA POST 731","7245 LINDA VISTA RD, SAN DIEGO, CA  92111",-1,-117.165496363,32.791008767,6280315.51138,1868821.26628,"NONE","NONE","SanSKY","NONE","0088.00","Padre Gold Inc","",0,"cns/address"
"2013-07-09T",35,"","","2013-07-09T",16939,"ACTIVE",51,"1966-11-18T","2013-09-30T","ELKS LODGE CHULA VISTA 2011","901 ELKS LN, CHULA VISTA, CA  91910",-1,-117.034458305,32.6263651947,6320134.71979,1808589.59877,"NONE","NONE","SanCAR","NONE","0133.09","","",0,"cns/address"
"2013-07-09T",36,"","","2013-07-09T",16996,"SUREND",41,"1978-11-06T","2013-06-30T","GARCIA, BERTHA","2752 E 18TH ST, NATIONAL CITY, CA  91950-5302",-1,-117.075400152,32.6750851375,6307669.45455,1826413.0,"NONE","NONE","SanKER","NONE","0121.02","Carnitas La Hacienda Restaurant","38 H ST CHULA VISTA, CA  91910-4920",321,"cns/seginterp"
"2013-07-09T",37,"","","2013-07-09T",17446,"ACTIVE",20,"1977-06-01T","2013-06-30T","PNS STORES INC","1210 BROADWAY, CHULA VISTA, CA  91911",-1,-117.081035209,32.6059178257,6305734.85354,1801261.19221,"NONE","NONE","SanMIS","NONE","0131.03","Big Lots 4027","300 PHILLIPI RD, ATTN TAX DEPT COLUMBUS, OH  43228-5311",0,"cns/address"
"2013-07-09T",38,"","","2013-07-09T",17463,"ACTIVE",20,"1977-06-01T","2013-06-30T","PNS STORES INC","3705 ROSECRANS ST, SAN DIEGO, CA  92110",-1,-117.203501217,32.7514167885,6268504.41057,1854521.14869,"NONE","NONE","SanSCI","NONE","0065.00","Big Lots 4038","300 PHILLIPI RD, ATTN TAX DEPT COLUMBUS, OH  43228-5311",0,"cns/address"
"2013-07-09T",39,"","","2013-07-09T",17482,"ACTIVE",20,"1977-06-01T","2013-06-30T","PNS STORES INC","6145 LAKE MURRAY BLVD, LA MESA, CA  91942",-1,-117.020287441,32.790648067,6324939.38851,1868329.2716,"NONE","NONE","SanENC","NONE","0150.00","Big Lots 4047","300 PHILLIPI RD, ATTN TAX DEPT COLUMBUS, OH  43228-5311",50,"cns/address"
"2013-07-09T",40,"","","2013-07-09T",17811,"ACTIVE",57,"1971-11-15T","2014-01-31T","GERMAN AMERICAN SOCIETIES SAN DIEGO","1017 S MOLLISON AVE, EL CAJON, CA  92020",-1,-116.950346769,32.7798263968,6346407.0,1864240.3485,"NONE","NONE","NONE","NONE","0154.04","German American Societies","",2,"cns/address"
"2013-07-09T",41,"","","2013-07-09T",18236,"ACTIVE",20,"1976-02-10T","2013-06-30T","KAMPGROUND ENTERPRISES INC","111 N 2ND AVE, CHULA VISTA, CA  91910",-1,-136.17877344,25.9454865109,-1.0,-1.0,"NONE","NONE","SanMSS","NONE","0123.03","San Diego Metro Koa","",-1,"NONE"
"2013-07-09T",42,"","","2013-07-09T",18355,"SUREND",21,"1972-09-01T","2013-06-30T","THRIFTY PAYLESS INC","9759 MISSION GORGE RD, SANTEE, CA  92071",-1,-116.983283066,32.8382762009,6336433.37632,1885576.17061,"NONE","NONE","SanMID","NONE","0166.16","Rite Aid 5641","2600 CAPITOL AVE, STE 300 SACRAMENTO, CA  95816-5930",52,"cns/address"
"2013-07-09T",43,"","","2013-07-09T",18362,"ACTIVE",21,"1972-09-01T","2013-06-30T","THRIFTY PAYLESS INC","1135 AVOCADO AVE, EL CAJON, CA  92020",-1,-116.957524941,32.7799418941,6344201.02462,1864297.26632,"NONE","NONE","SanMDC","NONE","0154.03","Rite Aid Store 5625","2600 CAPITOL AVE, STE 300 SACRAMENTO, CA  95816-5930",2,"cns/address"
"2013-07-09T",44,"","","2013-07-09T",18420,"ACTIVE",47,"1971-01-29T","2013-10-31T","JFB CORPORATION","2401 CAMINO DEL RIO S, SAN DIEGO, CA  92108-3701",-1,-136.17877344,25.9454865109,-1.0,-1.0,"NONE","NONE","SanSOT","NONE","0011.00","Bully'S Restaurant","",-1,"NONE"
"2013-07-09T",45,"","","2013-07-09T",18864,"ACTIVE",51,"1978-10-03T","2014-04-30T","POWAY VALLEY BRANCH 70 FLEET RESERV","14231 GARDEN RD 9/10, POWAY, CA  92064",-1,-117.023340289,32.9557709768,6324446.80078,1928414.00191,"NONE","NONE","NONE","NONE","0170.49","Poway Valley Branch 70 Fleet Reserve","",0,"cns/address"
"2013-07-09T",46,"","","2013-07-09T",19253,"ACTIVE",40,"1973-08-08T","2014-03-31T","FLORES, JAMES P","1524 MCKINLEY AVE, NATIONAL CITY, CA  91950",-1,-117.111776301,32.6672711917,6296452.31325,1823660.58051,"NONE","NONE","SanLIN","NONE","0219.00","Cafe Estela","",0,"cns/address"
"2013-07-09T",47,"","","2013-07-09T",21973,"ACTIVE",52,"1974-02-01T","2014-03-31T","AMERICAN LEGION LINDA VISTA POST 73","7245 LINDA VISTA RD 2ND FL, 2ND FL, SAN DIEGO, CA  92111",-1,-117.165496363,32.791008767,6280315.51138,1868821.26628,"NONE","NONE","SanTOR","NONE","0088.00","American Legion Linda Vista Post 731","",0,"cns/address"
"2013-07-09T",48,"","","2013-07-09T",22055,"ACTIVE",21,"1994-01-01T","2013-06-30T","THRIFTY PAYLESS INC","439 SANTA FE DR, ENCINITAS, CA  92024",-1,-117.283237464,33.0353795074,6245013.41883,1958068.6814,"NONE","NONE","NONE","NONE","0174.01","Rite Aid Store 5627","2600 CAPITOL AVE, STE 300 SACRAMENTO, CA  95816-5930",12,"cns/address"
"2013-07-09T",49,"","","2013-07-09T",22526,"ACTIVE",52,"1954-08-23T","2013-06-30T","AMERICAN LEGION CHULA VISTA POST 434","47 5TH AVE, CHULA VISTA, CA  91910",-1,-117.093433684,33.1101735633,6303400.752,1984758.149,"NONE","NONE","SanUPT","NONE","0124.01","American Legion Chula Vista Post 434","",0,"cns/segmid"
"2013-07-09T",50,"","","2013-07-09T",23435,"ACTIVE",21,"1968-03-15T","2013-06-30T","THRIFTY PAYLESS INC","6505 MISSION GORGE RD, SAN DIEGO, CA  92120",-1,-117.096978331,32.7915568416,6301373.67186,1868842.7037,"NONE","NONE","SanPAC","NONE","0096.04","Rite Aid Store 5657","2600 CAPITOL AVE, STE 300 SACRAMENTO, CA  95816-5930",0,"cns/address"
"2013-07-09T",51,"","","2013-07-09T",24095,"ACTIVE",52,"1994-01-01T","2014-05-31T","AMERICAN LEGION ALBERT J HICKMAN PT","7815 ARMOUR ST, SAN DIEGO, CA  92111",-1,-117.154317783,32.8197286427,6283841.46674,1879240.5162,"NONE","NONE","SanPCF","NONE","0085.11","American Legion Albert J Hickman Post 460","",0,"cns/address"
"2013-07-09T",52,"","","2013-07-09T",25836,"ACTIVE",51,"1969-08-11T","2013-06-30T","MOOSE LODGE SAN DIEGO 508","1648 30TH ST, SAN DIEGO, CA  92102",-1,-117.130513714,32.7231635402,6290857.68742,1844044.30183,"NONE","NONE","SanGRE","NONE","0044.00","Moose Lodge San Diego 508","",0,"cns/address"
"2013-07-09T",53,"","","2013-07-09T",25868,"ACTIVE",52,"1965-12-07T","2013-08-31T","AMVETS POST 17","136 CHAMBERS ST, EL CAJON, CA  92020",-1,-116.967057717,32.7959175445,6341311.04087,1870129.82819,"NONE","NONE","SanSER","NONE","0162.02","Veterans Memorial Association","",0,"cns/address"
"2013-07-09T",54,"","","2013-07-09T",26090,"ACTIVE",21,"1980-04-25T","2013-06-30T","THRIFTY PAYLESS INC","955 TAMARACK AVE, CARLSBAD, CA  92008-3414",-1,-117.334441189,33.1521276592,6229763.5214,2000704.68206,"NONE","NONE","SanDEL","NONE","0178.10","Rite Aid Store 5621","2600 CAPITOL AVE, STE 300 SACRAMENTO, CA  95816-5930",4,"cns/address"
"2013-07-09T",55,"","","2013-07-09T",26207,"ACTIVE",51,"1979-05-29T","2013-07-31T","CORONADO SHORES LANDSCAPE & RECREATION COMMITTEE","1768 AVENIDA DEL MUNDO, CORONADO, CA  92118",-1,-136.17877344,25.9454865109,-1.0,-1.0,"NONE","NONE","SanCOL","NONE","0216.00","Beach Club The","1740 AVENIDA DEL MUNDO, ROEDER PAVILION CORONADO, CA  92118",-1,"NONE"
"2013-07-09T",56,"","","2013-07-09T",27357,"ACTIVE",21,"1975-02-01T","2013-06-30T","VONS COMPANIES INC THE","10460 CLAIREMONT MESA BLVD, SAN DIEGO, CA  92124",-1,-117.104312363,32.8301734215,6299234.95381,1882911.1238,"NONE","NONE","SanMRM","NONE","0095.02","Vons 2134","PO BOX 29096 PHOENIX, AZ  85038-9096",0,"cns/address"
"2013-07-09T",57,"","","2013-07-09T",27986,"ACTIVE",40,"1972-10-13T","2013-06-30T","POWAY VALLEY RIDERS ASSOCIATION","14336 TIERRA BONITA RD, POWAY, CA  92064",-1,-117.02768786,32.9738982555,6323162.41482,1935019.30824,"NONE","NONE","SanSNS","NONE","0170.09","Poway Valley Riders Association","PO BOX 77 POWAY, CA  92074",387,"cns/seginterp"
"2013-07-09T",58,"","","2013-07-09T",28087,"ACTIVE",51,"1994-01-01T","2013-07-31T","CORONADO YACHT CLUB","1631 STRAND WAY, CORONADO, CA  92118",-1,-117.174973739,32.6821298005,6277051.55696,1829233.27862,"NONE","NONE","SanSAB","NONE","0216.00","Coronado Yacht Club","",670,"cns/seginterp"
"2013-07-09T",59,"","","2013-07-09T",28138,"ACTIVE",21,"1971-05-26T","2013-08-31T","SHAMOUN, HANI MICHEL","3676 OCEAN VIEW BLVD, SAN DIEGO, CA  92113",-1,-117.115163341,32.7014416608,6295513.12755,1836101.6142,"NONE","NONE","SanCRM","NONE","0035.01","","",0,"cns/address"
"2013-07-09T",60,"","","2013-07-09T",28239,"ACTIVE",47,"1976-04-01T","2013-09-30T","PERILS OF PAULINE FOOD PRODUCTIONS","3768 MISSION BLVD, SAN DIEGO, CA  92109",-1,-117.252433556,32.7839879356,6253574.12429,1866512.61045,"NONE","NONE","SanDOW","NONE","0076.00","Saskas","",3,"cns/address"
"2013-07-09T",61,"","","2013-07-09T",29759,"ACTIVE",50,"1946-04-23T","2013-09-30T","SAN DIEGO YACHT CLUB INC","1011 ANCHORAGE LN, SAN DIEGO YACHT CLUB, SAN DIEGO, CA  92106",-1,-117.230831263,32.7192733641,6259991.77778,1842904.33333,"NONE","NONE","SanTRR","NONE","0071.00","","",393,"cns/seginterp"
"2013-07-09T",62,"","","2013-07-09T",30553,"ACTIVE",57,"1962-03-13T","2014-03-31T","SAN DIEGO COUNTRY CLUB INC","88 L ST, CHULA VISTA, CA  91911",-1,-117.062891296,32.623247185,6311371.63158,1807522.20995,"NONE","NONE","SanBAL","NONE","0131.02","","",446,"cns/seginterp"
"2013-07-09T",63,"","","2013-07-09T",30564,"ACTIVE",52,"1963-02-04T","2014-04-30T","VFW ROBERT H SCHOLER POST 2111","299 I ST, CHULA VISTA, CA  91910",-1,-117.075671771,32.6313373547,6307459.82369,1810496.63214,"NONE","NONE","NONE","NONE","0128.00","Vfw Robert H Scholer Post 2111","",0,"cns/address"
"2013-07-09T",64,"","","2013-07-09T",30838,"ACTIVE",20,"1968-07-01T","2013-08-31T","OCONNORS CHURCH GOODS INC","3720 EL CAJON BLVD, SAN DIEGO, CA  92105",-1,-117.113061165,32.7555694619,6296322.831,1855789.803,"NONE","NONE","SanMII","NONE","0021.00","Oconnors Church Goods","",0,"cns/address"
"2013-07-09T",65,"","","2013-07-09T",32505,"ACTIVE",21,"1975-01-01T","2013-06-30T","VONS COMPANIES INC THE","8310 MIRA MESA BLVD, SAN DIEGO, CA  92126",-1,-117.146661123,32.9134926488,6286487.07733,1913334.65778,"NONE","NONE","SanRES","NONE","0083.57","Vons 2136","PO BOX 29096 PHOENIX, AZ  85038-9096",0,"cns/address"
"2013-07-09T",66,"","","2013-07-09T",32778,"ACTIVE",40,"1976-09-01T","2013-08-31T","CASTILLO, ERNESTINE R","2143 LOGAN AVE, SAN DIEGO, CA  92113",-1,-117.140403524,32.698431847,6287739.22687,1835071.91159,"NONE","NONE","SanMDW","NONE","0050.00","Logan Inn","",0,"cns/address"
"2013-07-09T",67,"","","2013-07-09T",33896,"ACTIVE",52,"1974-08-05T","2013-06-30T","VFW LT FRED LEWIS KENT POST 7907","12342 OLD POMERADO RD, POWAY, CA  92064",-1,-117.06639381,32.9422109941,6311201.89133,1923581.06663,"NONE","NONE","NONE","NONE","0170.42","Vfw Lt Fred L Kent Post 7907","",0,"cns/address"
"2013-07-09T",68,"","","2013-07-09T",34340,"ACTIVE",51,"1966-02-17T","2013-10-31T","FLEET RESERVE ASSN BR 61 SAN DIEGO","288 3RD AVE, CHULA VISTA, CA  91910",-1,-136.17877344,25.9454865109,-1.0,-1.0,"NONE","NONE","SanMDS","NONE","0123.02","Fleet Reserve Assn Br 61 San Diego","",-1,"NONE"
"2013-07-09T",69,"","","2013-07-09T",34891,"ACTIVE",47,"1979-01-30T","2014-01-31T","BRIGANTINE THE","421 W FELICITA AVE, ESCONDIDO, CA  92025",-1,-117.075316627,33.1046986664,6308932.44974,1982721.76817,"NONE","NONE","SanTOE","NONE","0207.07","Brigantine The","7889 OSTROW ST SAN DIEGO, CA  92111-3602",11,"cns/address"
"2013-07-09T",70,"","","2013-07-09T",35423,"ACTIVE",47,"1953-11-17T","2014-03-31T","SHELTER ISLAND INC","2230 SHELTER ISLAND DR, SAN DIEGO, CA  92106",-1,-117.220426473,32.719614539,6263193.04827,1842998.51852,"NONE","NONE","SanFAR","NONE","0071.00","Bali Hai","",0,"cns/address"
"2013-07-09T",71,"","","2013-07-09T",35633,"ACTIVE",21,"1969-10-23T","2013-06-30T","THRIFTY PAYLESS INC","4077 GOVERNOR DR, SAN DIEGO, CA  92122",-1,-117.202509951,32.8541419461,6269150.6177,1891892.98602,"NONE","NONE","SanGRT","NONE","0083.45","Rite Aid Store 5658","2600 CAPITOL AVE, STE 300 SACRAMENTO, CA  95816-5930",0,"cns/address"
"2013-07-09T",72,"","","2013-07-09T",35968,"ACTIVE",51,"1972-05-19T","2013-08-31T","SOUTHWESTERN YACHT CLUB INC","2702 QUALTROUGH ST, SAN DIEGO, CA  92106",-1,-117.2337288,32.7145441304,6259084.37259,1841192.08919,"NONE","NONE","SanOCN","NONE","0071.00","Southwestern Yacht Club","",0,"cns/address"
"2013-07-09T",73,"","","2013-07-09T",36295,"ACTIVE",52,"1964-07-02T","2014-05-31T","VFW KEARNY MESA POST 3788","7785 OTHELLO AVE, SAN DIEGO, CA  92111",-1,-117.155606613,32.8166519396,6283435.79819,1878124.54775,"NONE","NONE","SanBAR","NONE","0085.11","Vfw Kearny Mesa Post 3788","",0,"cns/address"
"2013-07-09T",74,"","","2013-07-09T",37298,"ACTIVE",21,"1975-03-01T","2013-06-30T","VONS COMPANIES INC THE","5630 LAKE MURRAY BLVD, LA MESA, CA  91942",-1,-117.030272973,32.7812441411,6321845.05362,1864930.6011,"NONE","NONE","SanOLD","NONE","0148.04","Vons 2137","PO BOX 29096 PHOENIX, AZ  85038-9096",1,"cns/address"
"2013-07-09T",75,"","","2013-07-09T",38823,"ACTIVE",47,"1973-05-30T","2014-03-31T","SOVA, GERALD H","158 N COAST HIGHWAY 101, ENCINITAS, CA  92024",-1,-117.294280773,33.0493774143,6241680.13087,1963195.27517,"NONE","NONE","SanMSH","NONE","0177.02","Captain Kenos","",412,"cns/seginterp"
"2013-07-09T",76,"","","2013-07-09T",38922,"ACTIVE",51,"1994-01-01T","2014-02-28T","OCEANSIDE YACHT CLUB INC","1950 HARBOR DR N, OCEANSIDE, CA  92054",-1,-117.37504631,33.2830028657,6217850.2425,2048453.302,"NONE","NONE","NONE","NONE","0183.00","Oceanside Yacht Club","",10,"cns/address"
"2013-07-09T",77,"","","2013-07-09T",38946,"ACTIVE",52,"1994-01-01T","2013-06-30T","VFW DON DIEGO POST 7420","2100-08 LOGAN AVE, SAN DIEGO, CA  92113",-1,-117.11355089,32.697074288,6295996.0,1834508.501,"NONE","NONE","NONE","San007","0050.00","Don Diego Vfw Post 7420","",0,"cns/segmid"
"2013-07-09T",78,"","","2013-07-09T",38999,"ACTIVE",21,"1983-12-30T","2013-06-30T","THRIFTY PAYLESS INC","6939 LINDA VISTA RD, SAN DIEGO, CA  92111",-1,-117.169525101,32.7851508893,6279058.63187,1866700.87654,"NONE","NONE","NONE","San005","0088.00","Rite Aid Store 5649","2600 CAPITOL AVE, STE 300 SACRAMENTO, CA  95816-5930",0,"cns/address"
"2013-07-09T",79,"","","2013-07-09T",39265,"ACTIVE",21,"1979-01-11T","2013-06-30T","VONS COMPANIES INC THE","505 TELEGRAPH CANYON RD, CHULA VISTA, CA  91910",-1,-117.04098678,32.6294006085,6318133.04213,1809709.18277,"NONE","NONE","NONE","San001","0134.09","Vons 2006","PO BOX 29096 PHOENIX, AZ  85038-9096",0,"cns/address"
"2013-07-09T",80,"","","2013-07-09T",39677,"ACTIVE",47,"1987-06-29T","2013-07-31T","NATIS","1852 BACON ST, SAN DIEGO, CA  92107",-1,-117.251786412,32.7463843993,6253641.56027,1852829.41595,"NONE","NONE","NONE","San006","0075.02","Natis Mexican Restaurant","",0,"cns/address"
"2013-07-09T",81,"","","2013-07-09T",39815,"ACTIVE",47,"1975-10-01T","2014-05-31T","BLANTON, MARIE C","975 GREENFIELD DR, EL CAJON, CA  92021",-1,-116.949523464,32.8133308042,6346741.83417,1876428.83333,"NONE","NONE","NONE","San002","0165.02","Calypso","",285,"cns/seginterp"
"2013-07-09T",82,"","","2013-07-09T",41424,"ACTIVE",47,"1994-01-01T","2014-04-30T","RICKYS PANCAKE HOUSE INC","2181 HOTEL CIR S, SAN DIEGO, CA  92108",-1,-117.182535798,32.758763293,6274974.14397,1857135.74176,"NONE","NONE","NONE","San008","0089.02","Rickys Family Restaurant","",0,"cns/address"
"2013-07-09T",83,"","","2013-07-09T",41529,"ACTIVE",41,"1978-06-06T","2013-09-30T","PROVATARIS, PETROS","10615 TIERRASANTA BLVD, STE H, SAN DIEGO, CA  92124",-1,-117.236438332,32.8000613129,6258545.3505,1872313.70225,"NONE","NONE","NONE","San004","0095.09","","",16,"cns/address"
"2013-07-09T",84,"","","2013-07-09T",41835,"ACTIVE",57,"1994-01-01T","2014-05-31T","SAN DIEGO COUNTY SWISS CLUB INC","2001 MAIN ST, CHULA VISTA, CA  91911",-1,-117.006576058,32.5930324381,6328631.40833,1796398.40309,"NONE","NONE","NONE","San003","0101.03","San Diego County Swiss Club Inc","",2074,"cns/seginterp"
"2013-07-09T",85,"","","2013-07-09T",41992,"ACTIVE",21,"1976-11-01T","2013-06-30T","VONS COMPANIES INC THE","940 S SANTA FE AVE, VISTA, CA  92084",-1,-117.232905653,33.194117282,6260982.45652,2015674.00942,"NONE","NONE","NONE","San009","0195.03","Vons 2121","PO BOX 29096 PHOENIX, AZ  85038-9096",0,"cns/address"
"2013-07-09T",86,"","","2013-07-09T",42066,"ACTIVE",52,"1976-01-01T","2013-06-30T","AMERICAN LEGION THE DENNIS WILLIAMS","465 47TH ST, SAN DIEGO, CA  92102",-1,-117.093213576,32.7104269084,6302291.908,1839315.44275,"NONE","SanSCR","NONE","NONE","0034.04","American Legion Post 310","",0,"cns/address"
"2013-07-09T",87,"","","2013-07-09T",43829,"ACTIVE",51,"1994-01-01T","2013-09-30T","ELKS LODGE EL CAJON 1812","1400 E WASHINGTON AVE, EL CAJON, CA  92019",-1,-116.93098886,32.7884890035,6352377.37667,1867352.72693,"NONE","SanTIR","NONE","NONE","0156.01","El Cajon Elks Lodge 1812","",0,"cns/address"
"2013-07-09T",88,"","","2013-07-09T",44421,"ACTIVE",52,"1994-01-01T","2014-01-31T","VFW MISSION VALLEY POST 3787","4370 TWAIN AVE, SAN DIEGO, CA  92120",-1,-117.099668763,32.7853435361,6300528.44569,1866588.81706,"NONE","SanCAR","NONE","NONE","0096.03","Vfw Mission Valley Post 3787","",0,"cns/address"
"2013-07-09T",89,"","","2013-07-09T",44465,"ACTIVE",21,"1994-01-01T","2014-05-31T","TUEY, ALBERT","1045 MORENA BLVD, SAN DIEGO, CA  92110",-1,-117.199131747,32.7678426708,6269902.20837,1860485.14346,"NONE","SanSAN","NONE","NONE","0091.06","Moreno Blvd Market","",0,"cns/address"
"2013-07-09T",90,"","","2013-07-09T",45016,"ACTIVE",21,"1994-01-01T","2013-06-30T","VONS COMPANIES INC THE","5555 BALBOA AVE, SAN DIEGO, CA  92111",-1,-117.179034831,32.8183520086,6276243.61165,1878806.41358,"NONE","SanRAN","NONE","NONE","0085.09","Vons 2040","PO BOX 29096 PHOENIX, AZ  85038-9096",0,"cns/address"
"2013-07-09T",91,"","","2013-07-09T",45621,"ACTIVE",21,"1994-01-01T","2013-06-30T","THRIFTY PAYLESS INC","1854 CORONADO AVE, SAN DIEGO, CA  92154",-1,-117.252099578,32.7410527268,6253526.628,1850890.52,"NONE","SanMIA","NONE","NONE","0101.03","Rite Aid Store 5668","2600 CAPITOL AVE, STE 300 SACRAMENTO, CA  95816-5930",0,"cns/segmid"
"2013-07-09T",92,"","","2013-07-09T",46332,"ACTIVE",47,"1994-01-01T","2014-02-28T","SHELTER ISLAND INC","2150 HARBOR ISLAND DR, SAN DIEGO, CA  92101",-1,-117.213281059,32.7243811883,6265406.71994,1844712.39506,"NONE","SanRNC","NONE","NONE","0062.00","Tom Hams Lighthouse","2230 SHELTER ISLAND DR SAN DIEGO, CA  92106",0,"cns/address"
"2013-07-09T",93,"","","2013-07-09T",46743,"ACTIVE",52,"1964-12-31T","2014-03-31T","VFW PST 2082 LEMON GROVE","2885 LEMON GROVE AVE, LEMON GROVE, CA  91945",-1,-117.030526586,32.7378130683,6321648.81168,1849129.38301,"NONE","SanOTM","NONE","NONE","0140.01","Veterans Of Foreign Wars Post 2082","",0,"cns/address"
"2013-07-09T",94,"","","2013-07-09T",46950,"ACTIVE",47,"1994-01-01T","2013-10-31T","IMPERIAL HOUSE RESTAURANT","505 KALMIA ST, SAN DIEGO, CA  92101",-1,-117.15969495,32.7301193816,6281905.07171,1846652.11392,"NONE","SanMIR","NONE","NONE","0059.00","Imperial House Restaurant","",0,"cns/address"
"2013-07-09T",95,"","","2013-07-09T",47532,"ACTIVE",47,"1978-01-01T","2014-03-31T","CALLAHILLS INC","2614 SHELTER ISLAND DR, SAN DIEGO, CA  92106",-1,-117.227134061,32.720980007,6261134.71449,1843514.58553,"NONE","SanLAJ","NONE","NONE","0071.00","Red Sails Inn","",0,"cns/address"
"2013-07-09T",96,"","","2013-07-09T",47825,"ACTIVE",47,"1994-01-01T","2014-05-31T","BRIGANTINE THE","2912 SHELTER ISLAND DR, SAN DIEGO, CA  92106",-1,-117.230037464,32.7223209124,6260246.34224,1844010.82917,"NONE","SanSOR","NONE","NONE","0214.00","","7889 OSTROW ST SAN DIEGO, CA  92111-3602",0,"cns/address"
"2013-07-09T",97,"","","2013-07-09T",48015,"ACTIVE",47,"1994-01-01T","2014-05-31T","TONYS JACAL INC","621 VALLEY AVE, SOLANA BEACH, CA  92075",-1,-117.258937169,32.9886941033,6252296.05531,1941010.11775,"NONE","SanBLA","NONE","NONE","0173.04","Tonys Jacal Inc","1179 HYMETTUS AVE ENCINITAS, CA  92024",0,"cns/address"
"2013-07-09T",98,"","","2013-07-09T",48077,"ACTIVE",48,"1978-03-01T","2013-07-31T","MARJO BAR X","119 E BROADWAY, VISTA, CA  92084",-1,-117.242653241,33.2007978291,6258023.76768,2018132.89899,"NONE","SanNUV","NONE","NONE","0195.03","Smittys Down Town","",235,"cns/seginterp"
"2013-07-09T",99,"","","2013-07-09T",49412,"ACTIVE",47,"1994-01-01T","2014-02-28T","BRIGANTINE THE","1333 ORANGE AVE, CORONADO, CA  92118",-1,-117.177741177,32.6828249806,6276202.28703,1829493.77358,"NONE","SanKER","NONE","NONE","0218.00","","7889 OSTROW ST SAN DIEGO, CA  92111-3602",2,"cns/address"
"2013-07-09T",100,"","","2013-07-09T",49836,"SUREND",21,"1994-01-01T","2013-06-30T","THRIFTY PAYLESS INC","1325 3RD AVE, CHULA VISTA, CA  91911",-1,-136.17877344,25.9454865109,-1.0,-1.0,"NONE","SanLAK","NONE","NONE","0132.03","Rite Aid Store 5616","2600 CAPITOL AVE, STE 300 SACRAMENTO, CA  95816-5930",-1,"NONE"
"2013-07-09T",101,"","","2013-07-09T",50391,"ACTIVE",52,"1994-01-01T","2014-01-31T","AMERICAN LEGION LA MESA POST 282","8118 UNIVERSITY AVE, LA MESA, CA  91941",-1,-117.02285661,32.768019588,6324088.80959,1860102.04938,"NONE","NONE","NONE","NONE","0146.01","American Legion Post 282","PO BOX 265 LA MESA, CA  91944",0,"cns/address"
"2013-07-09T",102,"","","2013-07-09T",50440,"ACTIVE",47,"1994-01-01T","2013-10-31T","OLD TRIESTE INC","2335 MORENA BLVD, SAN DIEGO, CA  92110",-1,-117.20593446,32.7866508487,6267873.84319,1867347.24838,"NONE","SanNOR","NONE","NONE","0091.03","Old Trieste Restaurant","",0,"cns/address"
"2013-07-09T",103,"","","2013-07-09T",51324,"ACTIVE",41,"1994-01-01T","2014-04-30T","SPORTSMENS SEA FOOD COMPANY INC","1617 QUIVIRA RD, SAN DIEGO, CA  92109",-1,-117.237793265,32.764659254,6258006.97785,1859437.30961,"NONE","SanPCF","NONE","NONE","0076.00","Sportsmens Sea Food","",0,"cns/address"
"2013-07-09T",104,"","","2013-07-09T",51369,"SUREND",51,"1958-01-20T","2013-09-30T","SILVER GATE YACHT CLUB","2091 SHELTER ISLAND DR, SAN DIEGO, CA  92106",-1,-117.226445964,32.7154677224,6261327.56024,1841507.06369,"NONE","NONE","NONE","NONE","0071.00","Silver Gate Yacht Club","",0,"cns/address"
"2013-07-09T",105,"","","2013-07-09T",51796,"ACTIVE",54,"1976-05-01T","2013-06-30T","STAR & CRESCENT BOAT COMPANY","1050 N HARBOR DR, SAN DIEGO, CA  92101",-1,-117.173729665,32.7166932709,6277545.76198,1841805.2067,"NONE","SanSER","NONE","NONE","0054.00","Flagship Cruises And Events Cabrillo","PO BOX 120751 SAN DIEGO, CA  92112-0751",16,"cns/address"
"2013-07-09T",106,"","","2013-07-09T",51807,"ACTIVE",54,"1976-05-01T","2013-07-31T","STAR & CRESCENT BOAT COMPANY","1050 N HARBOR DR, SAN DIEGO, CA  92101",-1,-117.173729665,32.7166932709,6277545.76198,1841805.2067,"NONE","SanTOR","NONE","NONE","0054.00","Flagship Cruises And Events Marietta","PO BOX 120751 SAN DIEGO, CA  92112-0751",16,"cns/address"
"2013-07-09T",107,"","","2013-07-09T",51808,"ACTIVE",54,"1976-05-01T","2013-08-31T","STAR & CRESCENT BOAT COMPANY","1050 N HARBOR DR, SAN DIEGO, CA  92101",-1,-117.173729665,32.7166932709,6277545.76198,1841805.2067,"NONE","SanIDW","NONE","NONE","0054.00","Flagship Cruises And Events Silvergate","PO BOX 120751 SAN DIEGO, CA  92112-0751",16,"cns/address"
"2013-07-09T",108,"","","2013-07-09T",51814,"ACTIVE",54,"1976-05-01T","2013-04-30T","STAR & CRESCENT BOAT COMPANY","1050 N HARBOR DR, SAN DIEGO, CA  92101",-1,-117.173729665,32.7166932709,6277545.76198,1841805.2067,"NONE","SanSNC","NONE","NONE","0054.00","Flagship Cruises And Events Monterey","PO BOX 120751 SAN DIEGO, CA  92112-0751",16,"cns/address"
"2013-07-09T",109,"","","2013-07-09T",51863,"ACTIVE",47,"1983-09-07T","2014-03-31T","BAL FI INC","7878 CLAIREMONT MESA BLVD, SAN DIEGO, CA  92111",-1,-117.151684249,32.8332665943,6284693.11983,1884159.06011,"NONE","SanTOM","NONE","NONE","0085.11","Godfather Restaurant The","",0,"cns/address"
"2013-07-09T",110,"","","2013-07-09T",54227,"ACTIVE",41,"1957-06-27T","2013-07-31T","PERNICANO, JOHN E","711 TURQUOISE ST, SAN DIEGO, CA  92109",-1,-117.260678607,32.8081043314,6251125.18569,1875311.32526,"NONE","SanMRM","NONE","NONE","0080.06","Pernicanos Pizza House","",0,"cns/address"
"2013-07-09T",111,"","","2013-07-09T",54507,"ACTIVE",21,"1974-10-01T","2013-06-30T","VONS COMPANIES INC THE","11986 BERNARDO PLAZA DR, SAN DIEGO, CA  92128",-1,-117.072635167,33.0207380561,6309512.54434,1952167.15323,"NONE","SanMSB","NONE","NONE","0170.14","Vons 2079","PO BOX 29096 PHOENIX, AZ  85038-9096",0,"cns/address"
"2013-07-09T",112,"","","2013-07-09T",54761,"ACTIVE",51,"1956-06-10T","2014-01-31T","EAGLES LODGE AERIE 2712","1131 ROOSEVELT AVE, NATIONAL CITY, CA  91950",-1,-117.106402896,32.6723395852,6298121.10513,1825491.01468,"NONE","SanBAT","NONE","NONE","0219.00","Eagles Aerie 2712","",2,"cns/address"
"2013-07-09T",113,"","","2013-07-09T",56756,"ACTIVE",21,"1994-01-01T","2013-06-30T","THRIFTY PAYLESS INC","1735 EUCLID AVE, SAN DIEGO, CA  92105",-1,-117.083938706,32.7232780773,6305182.21988,1843968.20446,"NONE","SanLIN","NONE","NONE","0027.12","Rite Aid Store 5646","2600 CAPITOL AVE, STE 300 SACRAMENTO, CA  95816-5930",0,"cns/address"
"2013-07-09T",114,"","","2013-07-09T",57245,"ACTIVE",52,"1994-01-01T","2013-05-31T","AMERICAN LEGION J B CLARK POST 149","230 E PARK AVE, ESCONDIDO, CA  92025",-1,-117.084009634,33.1289316394,6306341.0,1991559.87879,"NONE","SanNRT","NONE","NONE","0202.14","American Legion J B Clark Post 149","",534,"cns/seginterp"
"2013-07-09T",115,"","","2013-07-09T",57253,"ACTIVE",52,"1994-01-01T","2014-03-31T","LARRY E BENNETT POST 255 THE AMERICAN LEGION DEPAR","35 E 18TH ST, NATIONAL CITY, CA  91950",-1,-117.102942108,32.6676751631,6299172.20523,1823785.2037,"NONE","SanBAP","NONE","NONE","0117.00","Larry E Bennett Post 255","",0,"cns/address"
"2013-07-09T",116,"","","2013-07-09T",58130,"ACTIVE",41,"1994-01-01T","2013-10-31T","PERNICANO, GEORGE JAMES","1588 E MAIN ST, EL CAJON, CA  92021",-1,-116.924606587,32.8069202574,6354382.21122,1874045.98091,"NONE","SanOEC","NONE","NONE","0164.02","Pernicanos","",26,"cns/address"
"2013-07-09T",117,"","","2013-07-09T",59523,"ACTIVE",47,"1978-08-21T","2014-03-31T","WONGS GOLDEN PALACE INC","7126-30 UNIVERSITY AVE, LA MESA, CA  91941",-1,-117.032632457,32.7607669861,6321063.941,1857485.706,"NONE","SanEGG","NONE","NONE","0147.00","Wongs Golden Palace","",0,"cns/segmid"
"2013-07-09T",118,"","","2013-07-09T",60588,"ACTIVE",41,"1977-09-01T","2013-08-31T","MURINO, ASSUNTA","4475-79 INGRAHAM ST, SAN DIEGO, CA  92109",-1,-117.241805745,32.8028015881,6256905.539,1873326.343,"NONE","SanCAL","NONE","NONE","0079.07","Marinos Pizza House","1528 YOST DR SAN DIEGO, CA  92109",0,"cns/segmid"
"2013-07-09T",119,"","","2013-07-09T",61151,"ACTIVE",47,"1978-12-20T","2014-01-31T","BROGDON PROPERTIES","939 N COAST HWY, OCEANSIDE, CA  92054-2135",-1,-117.38892226,33.2026930901,6213290.706,2019279.806,"NONE","SanWOD","NONE","NONE","0184.00","Main Attraction The","PO BOX 294 OCEANSIDE, CA  92054-0294",0,"cns/segmid"
"2013-07-09T",120,"","","2013-07-09T",62236,"ACTIVE",21,"1983-05-06T","2013-06-30T","THRIFTY PAYLESS INC","507 TELEGRAPH CANYON RD, CHULA VISTA, CA  91910",-1,-117.039422764,32.6291572844,6318613.90105,1809617.00284,"NONE","SanSNS","NONE","NONE","0134.09","Rite Aid Store 5615","2600 CAPITOL AVE, STE 300 SACRAMENTO, CA  95816-5930",2,"cns/address"
"2013-07-09T",121,"","","2013-07-09T",63062,"ACTIVE",41,"1978-09-08T","2013-12-31T","COCOS RESTAURANTS INC","5550 LAKE MURRAY BLVD, LA MESA, CA  91942",-1,-117.034340071,32.7811311632,6320594.72058,1864898.87476,"NONE","SanNOA","NONE","NONE","0148.04","Cocos 0132","2200 FARADAY AVE, STE 250 CARLSBAD, CA  92008-7234",0,"cns/address"
"2013-07-09T",122,"","","2013-07-09T",64167,"ACTIVE",47,"1994-01-01T","2013-07-31T","ANTHONYS FISH GROTTO OF LA MESA","9530 MURRAY DR, LA MESA, CA  91942",-1,-116.992212176,32.7805939361,6333541.38285,1864608.62368,"NONE","SanMIS","NONE","NONE","0151.00","","5575 LAKE PARK WAY, # 211 LA MESA, CA  91942",0,"cns/address"
"2013-07-09T",123,"","","2013-07-09T",64613,"ACTIVE",21,"1976-12-01T","2013-06-30T","VONS COMPANIES INC THE","2560 EL CAMINO REAL, CARLSBAD, CA  92008",-1,-117.230362928,32.977667729,6261019.797,1936914.786,"NONE","SanSSI","NONE","NONE","0198.03","Vons 2142","PO BOX 29096 PHOENIX, AZ  85038-9096",0,"cns/segmid"
"2013-07-09T",124,"","","2013-07-09T",64701,"ACTIVE",41,"1975-07-01T","2014-01-31T","EUSTACHIO, JOSEPH","1825 E VISTA WAY, VISTA, CA  92084",-1,-117.226597092,33.2276212511,6263026.45519,2027845.94444,"NONE","SanBAH","NONE","NONE","0192.07","Marcos Italian Restaurant","",1,"cns/address"
"2013-07-09T",125,"","","2013-07-09T",64864,"ACTIVE",41,"1978-10-04T","2013-12-31T","DENNYS INC","1065 CAMINO DEL RIO S, SAN DIEGO, CA  92108",-1,-136.17877344,25.9454865109,-1.0,-1.0,"NONE","SanSAB","NONE","NONE","0093.04","Dennys Restaurant 1268","203 E MAIN ST, LEGAL DEP P 12 07 LICENSING SPARTANBURG, SC  29319-0001",-1,"NONE"
"2013-07-09T",126,"","","2013-07-09T",66683,"ACTIVE",51,"1994-01-01T","2014-03-31T","COLUMBUS CLUB OF SAN DIEGO","4425 HOME AVE, SAN DIEGO, CA  92105",-1,-117.098667425,32.7290138214,6300669.37137,1846091.61841,"NONE","SanEAN","NONE","NONE","0034.01","Columbus Club Of San Diego","",0,"cns/address"
"2013-07-09T",127,"","","2013-07-09T",67449,"ACTIVE",48,"1978-08-22T","2013-09-30T","CLUB 756","744 VENTURA PL, SAN DIEGO, CA  92109",-1,-117.251775974,32.7722187345,6253735.08033,1862228.68387,"NONE","SanTRV","NONE","NONE","0076.00","Coaster Saloon The","",0,"cns/address"
"2013-07-09T",128,"","","2013-07-09T",69691,"ACTIVE",41,"1977-02-01T","2014-01-31T","PERNICANO, JOAN E","9988 SCRIPPS RANCH BLVD, SAN DIEGO, CA  92131",-1,-117.099111933,32.9027719656,6301047.52362,1909311.93357,"NONE","SanCAE","NONE","NONE","0170.22","Pernicanos Ristorante","",0,"cns/address"
"2013-07-09T",129,"","","2013-07-09T",70087,"ACTIVE",51,"1969-11-13T","2013-07-31T","ESCONDIDO COLUMBUS CLUB","515 W VALLEY PKWY, ESCONDIDO, CA  92025",-1,-117.058200841,33.0937162188,6314142.68498,1978684.8541,"NONE","SanALL","NONE","NONE","0203.07","Escondido Columbus Club","",15,"cns/address"
"2013-07-09T",130,"","","2013-07-09T",70712,"ACTIVE",47,"1979-02-02T","2014-04-30T","LERUS CORPORATION","6333 MISSION GORGE RD, SAN DIEGO, CA  92120",-1,-117.097373427,32.7894676411,6301246.07619,1868083.56728,"NONE","SanTRR","NONE","NONE","0096.04","Tio Leos","",0,"cns/address"
"2013-07-09T",131,"","","2013-07-09T",70715,"ACTIVE",44,"1979-01-22T","2014-05-31T","PALM, DANIEL L","2803 EMERSON ST PIER III, SAN DIEGO, CA  92106",-1,-117.226833718,32.7227300295,6261233.0522,1844150.43205,"NONE","SanOKP","NONE","NONE","0214.00","Red Rooster","2801 EMERSON ST SAN DIEGO, CA  92106",0,"cns/address"
"2013-07-09T",132,"","","2013-07-09T",71197,"ACTIVE",41,"1979-08-09T","2013-07-31T","J J & N ENTERPRISES INC","1212 CAMINO DEL MAR, DEL MAR, CA  92014",-1,-136.17877344,25.9454865109,-1.0,-1.0,"NONE","SanCLR","NONE","NONE","0172.00","Board & Brew","",-1,"NONE"
"2013-07-09T",133,"","","2013-07-09T",74647,"ACTIVE",41,"1979-09-11T","2013-07-31T","MERCHANTS OF VENICE ENTERPRISES INC","3335 EL CAJON BLVD, SAN DIEGO, CA  92104",-1,-117.121530102,32.7549741458,6293717.34831,1855594.86509,"NONE","SanDLM","NONE","NONE","0016.00","Venice Pizza House","1586 WHITSETT DR EL CAJON, CA  92020",0,"cns/address"
"2013-07-09T",134,"","","2013-07-09T",76542,"ACTIVE",41,"1981-03-18T","2014-02-28T","FELICCIA, NINA D","1011 S SANTA FE AVE, STE C & D, VISTA, CA  92083",-1,-117.230785707,33.1920967955,6261624.04229,2014932.77139,"NONE","SanDLC","NONE","NONE","0196.02","Feliccias Italian Restaurant & Deli","1011 S SANTA FE AVE VISTA, CA  92083",0,"cns/address"
"2013-07-09T",135,"","","2013-07-09T",77501,"ACTIVE",41,"1979-08-28T","2014-01-31T","TIP TOP MEATS & EUROPEAN DELI INC","6118 PASEO DEL NORTE, CARLSBAD, CA  92011",-1,-117.318385018,33.1197573781,6234556.80175,1988876.5615,"NONE","SanBAL","NONE","NONE","0178.11","Tip Top Meats European Deli Inc","",0,"cns/address"
"2013-07-09T",136,"","","2013-07-09T",79819,"ACTIVE",41,"1979-10-16T","2013-09-30T","ARANDA, CELIA MUNOZ","260 PALM AVE, IMPERIAL BEACH, CA  91932",-1,-117.04576778,32.592029191,6316557.29134,1796123.2462,"NONE","SanGRA","NONE","NONE","0105.01","El Tapatio Restaurant","",1,"cns/address"
"2013-07-09T",137,"","","2013-07-09T",79910,"ACTIVE",47,"1979-11-16T","2014-05-31T","BELGON INCORPORATED","2968 STATE ST, CARLSBAD, CA  92008-2336",-1,-117.349208306,33.1597963553,6225273.49213,2003542.13418,"NONE","SanPON","NONE","NONE","0179.00","Garcias Mexican Restaurant & Creative Catering","PO BOX 231842 ENCINITAS, CA  92023-1842",1,"cns/address"
"2013-07-09T",138,"","","2013-07-09T",80512,"ACTIVE",40,"1979-11-05T","2014-02-28T","CITIZENS DEVELOPMENT CORP","1556 CAMINO DEL ARROYO, SAN MARCOS, CA  92078",-1,-136.17877344,25.9454865109,-1.0,-1.0,"NONE","SanPAR","NONE","NONE","0200.27","Executive Golf Course","",-1,"NONE"
"2013-07-09T",139,"","","2013-07-09T",81522,"ACTIVE",47,"1980-03-27T","2013-12-31T","COCOS RESTAURANTS INC","1025 FLETCHER PKWY, EL CAJON, CA  92020-1821",-1,-116.284458459,33.1932212852,6551125.092,2013932.462,"NONE","SanCOE","NONE","NONE","0162.02","Cocos 1162","2200 FARADAY AVE, STE 250 CARLSBAD, CA  92008-7234",0,"cns/segmid"
"2013-07-09T",140,"","","2013-07-09T",81643,"ACTIVE",41,"1980-02-14T","2014-03-31T","ZVI INC","6930 ALVARADO RD, SAN DIEGO, CA  92120",-1,-117.049083787,32.7751110641,6316046.44602,1862742.95679,"NONE","SanBAR","NONE","NONE","0148.06","D Z Akins","",0,"cns/address"
"2013-07-09T",141,"","","2013-07-09T",83962,"ACTIVE",47,"1980-02-04T","2014-02-28T","BULLYS CORPORATION","1404 CAMINO DEL MAR, DEL MAR, CA  92014",-1,-136.17877344,25.9454865109,-1.0,-1.0,"NONE","SanNES","NONE","NONE","0172.00","Bullys Del Mar","",-1,"NONE"
"2013-07-09T",142,"","","2013-07-09T",84681,"ACTIVE",52,"1980-05-13T","2014-01-31T","AMERICAN LEGION SAN DIEGO POST 6","3563-65 ADAMS AVE, SAN DIEGO, CA  92116",-1,-117.127232544,32.7631661083,6291989.268,1858590.079,"NONE","SanHIL","NONE","NONE","0018.00","","",0,"cns/segmid"
"2013-07-09T",143,"","","2013-07-09T",87076,"ACTIVE",21,"1980-04-16T","2013-06-30T","VONS COMPANIES INC THE","2345 E VALLEY PKWY, ESCONDIDO, CA  92027",-1,-117.097409422,33.1624075141,6302337.84027,2003772.8451,"NONE","SanMON","NONE","NONE","0202.09","Vons 2156","PO BOX 29096 PHOENIX, AZ  85038-9096",0,"cns/address"
"2013-07-09T",144,"","","2013-07-09T",87361,"ACTIVE",47,"1980-05-02T","2014-01-31T","H H RESTAURANT INC","831 W HARBOR DR, SAN DIEGO, CA  92101",-1,-117.169764712,32.708595601,6278739.2809,1838848.2284,"NONE","SanMST","NONE","NONE","0054.00","Harbor House","",0,"cns/address"
"2013-07-09T",145,"","","2013-07-09T",90517,"ACTIVE",41,"1980-05-27T","2013-07-31T","SANFILIPPO, ALFIO","3528 BARNETT AVE, SAN DIEGO, CA  92110",-1,-117.198241717,32.7455104638,6270101.90126,1852357.49431,"NONE","SanOCN","NONE","NONE","0065.00","Volares Italian Restaurant","",0,"cns/address"
"2013-07-09T",146,"","","2013-07-09T",90696,"ACTIVE",41,"1980-08-20T","2013-06-30T","MRS KELLYS INC","2805 EMERSON ST, SAN DIEGO, CA  92106",-1,-117.226833718,32.7227300295,6261233.0522,1844150.43205,"NONE","SanJAM","NONE","NONE","0214.00","Point Loma Seafoods","",2,"cns/address"
"2013-07-09T",147,"","","2013-07-09T",91147,"ACTIVE",48,"1980-05-27T","2013-07-31T","CATALINA LOUNGE INC","4202 VOLTAIRE ST, SAN DIEGO, CA  92107",-1,-117.234703293,32.7441331594,6258886.31332,1851960.30929,"NONE","SanUIN","NONE","NONE","0074.00","","",0,"cns/address"
"2013-07-09T",148,"","","2013-07-09T",92363,"ACTIVE",21,"1980-07-11T","2014-03-31T","CHOE, KOL","3012 GRAPE ST, SAN DIEGO, CA  92102",-1,-117.129872481,32.7266968039,6291065.74746,1845328.15764,"NONE","SanMOR","NONE","NONE","0044.00","Bottle House The","",0,"cns/address"
"2013-07-09T",149,"","","2013-07-09T",92468,"ACTIVE",48,"1980-07-14T","2013-08-31T","KOVALCHECK, RICHARD A","2893 MISSION BLVD, SAN DIEGO, CA  92109",-1,-117.251007796,32.765522933,6253947.81083,1859790.28467,"NONE","SanISS","NONE","NONE","0076.00","Pennant The","",0,"cns/address"
"2013-07-09T",150,"","","2013-07-09T",92839,"ACTIVE",47,"1980-08-07T","2013-09-30T","BONGIOVANNI ITALIAN RESTAURANT INC","15244 OLDE HIGHWAY 80, EL CAJON, CA  92021",-1,-116.846658297,32.8558747909,6378434.81096,1891711.61009,"NONE","SanVAL","NONE","NONE","0168.02","Bongiovannis Italian Restaurant","PO BOX 21464 EL CAJON, CA  92021",0,"cns/address"
"2013-07-09T",151,"","","2013-07-09T",92926,"ACTIVE",48,"1980-10-14T","2014-06-30T","KERMIT INC","4671-75 PARK BLVD, SAN DIEGO, CA  92116",-1,-117.149732309,32.7265855122,6284957.745,1845339.79,"NONE","SanKEN","NONE","NONE","0010.00","Lancers","",0,"cns/segmid"
"2013-07-09T",152,"","","2013-07-09T",93605,"ACTIVE",41,"1980-09-04T","2014-05-31T","FOXY JOHNS INC","6133 BALBOA AVE, SAN DIEGO, CA  92111",-1,-117.17546237,32.8196094677,6277345.19416,1879254.15687,"NONE","SanLOG","NONE","NONE","0085.09","","",0,"cns/address"
"2013-07-09T",153,"","","2013-07-09T",95739,"ACTIVE",42,"1980-10-06T","2013-09-30T","ROCKYS CROWN PUB INCORPORATED","3786 INGRAHAM ST, SAN DIEGO, CA  92109",-1,-117.23766913,32.7885803804,6258127.5824,1868140.17415,"NONE","SanSKL","NONE","NONE","0077.01","Rockys Crown Pub Inc","",0,"cns/address"
"2013-07-09T",154,"","","2013-07-09T",96229,"ACTIVE",41,"1980-10-02T","2013-09-30T","LOVETT, JOHN C","316 W MISSION AVE, STE 101 102 103, ESCONDIDO, CA  92025",-1,-117.09126482,33.1298379681,6304122.58929,1991907.48157,"NONE","SanRED","NONE","NONE","0202.14","Golden Egg Omelet House","10703 MEADOW GLEN WAY E ESCONDIDO, CA  92026",0,"cns/address"
"2013-07-09T",155,"","","2013-07-09T",97283,"ACTIVE",41,"1980-11-15T","2014-03-31T","ONDA, GIUSEPPE","403 W GRAND AVE, ESCONDIDO, CA  92025",-1,-117.085699622,33.1191868185,6305795.21579,1988018.46247,"NONE","SanRID","NONE","NONE","0202.14","","",10,"cns/address"
"2013-07-09T",156,"","","2013-07-09T",98666,"ACTIVE",41,"1980-11-28T","2013-06-30T","BOBBY D ENTERPRISES INC","114 W GRAND AVE, ESCONDIDO, CA  92025",-1,-117.082076991,33.1217743742,6306911.86927,1988951.04874,"NONE","SanCLL","NONE","NONE","0202.14","","PO BOX 2675 CHULA VISTA, CA  91912",0,"cns/address"
"2013-07-09T",157,"","","2013-07-09T",100628,"ACTIVE",47,"1981-01-19T","2013-08-31T","WATERFRONT RESTAURANTS INC","1660 COAST BLVD, DEL MAR, CA  92014",-1,-117.268171732,32.961903925,6249369.36383,1931290.55535,"NONE","SanROS","NONE","NONE","0172.00","Jakes Del Mar","225 PLAZA ST 300 SOLANA BEACH, CA  92075",0,"cns/address"
"2013-07-09T",158,"","","2013-07-09T",100989,"ACTIVE",48,"1981-01-13T","2013-09-30T","BLARNEY STONE PUB INC THE","5617 BALBOA AVE, SAN DIEGO, CA  92111",-1,-117.179789952,32.8194316848,6276015.12835,1879201.30225,"NONE","SanTAL","NONE","NONE","0085.09","Blarney Stone Pub","",0,"cns/address"
"2013-07-09T",159,"","","2013-07-09T",102279,"ACTIVE",21,"1981-02-13T","2013-09-30T","AKRA, TONY SIMON","980 TURQUOISE ST, SAN DIEGO, CA  92109",-1,-117.256066726,32.809623649,6252547.52389,1875850.39318,"NONE","SanPAL","NONE","NONE","0080.06","Heidis Liquor & Deli","",0,"cns/address"
"2013-07-09T",160,"","","2013-07-09T",104762,"ACTIVE",48,"1981-04-16T","2014-02-28T","PUBWAY CORP","3845 5TH AVE, SAN DIEGO, CA  92103-3141",-1,-117.089970071,33.1123979429,6304467.834,1985558.905,"NONE","SanROL","NONE","NONE","0003.00","Number One Fifth Ave","",0,"cns/segmid"
"2013-07-09T",161,"","","2013-07-09T",105117,"ACTIVE",20,"1981-04-23T","2013-07-31T","OTAY FARMS","1716 BROADWAY, CHULA VISTA, CA  91911",-1,-117.074838155,32.5941507579,6307609.43478,1796964.73913,"NONE","SanEMR","NONE","NONE","0132.05","Otay Farms","",292,"cns/seginterp"
"2013-07-09T",162,"","","2013-07-09T",107043,"ACTIVE",21,"1985-05-10T","2014-03-31T","BAZZI, JACK","402 CIVIC CENTER DR, NATIONAL CITY, CA  91950",-1,-117.109579093,32.6701215821,6297137.04543,1824692.07066,"NONE","SanBIR","NONE","NONE","0219.00","","",0,"cns/address"
"2013-07-09T",163,"","","2013-07-09T",107714,"ACTIVE",47,"1981-09-10T","2013-12-31T","GMRI INC","8703 MURRAY DR, LA MESA, CA  91942",-1,-117.013681978,32.7761268839,6326930.66667,1863031.0,"NONE","SanADM","NONE","NONE","0150.00","Red Lobster 504","PO BOX 695016 ORLANDO, FL  32869-5016",132,"cns/seginterp"
"2013-07-09T",164,"","","2013-07-09T",109560,"ACTIVE",20,"1981-08-05T","2013-10-31T","MATSUBARA, TAEKO M","559 GREENBRIER DR B, OCEANSIDE, CA  92054",-1,-117.356624376,33.1955372178,6223142.0412,2016569.868,"NONE","SanLNC","NONE","NONE","0185.09","Kyoto Gift & Food","",4,"cns/address"
"2013-07-09T",165,"","","2013-07-09T",110742,"ACTIVE",41,"1981-09-08T","2014-02-28T","GREEK ISLANDS CAFE","879 W HARBOR DR, STE E, SAN DIEGO, CA  92101",-1,-117.171959787,32.708938197,6278065.17697,1838978.83951,"NONE","SanMTO","NONE","NONE","0054.00","Greek Islands Cafe","",6,"cns/address"
"2013-07-09T",166,"","","2013-07-09T",111279,"ACTIVE",20,"1981-09-23T","2013-09-30T","ESTRADA, PEDRO R","2514 MAIN ST, CHULA VISTA, CA  91911",-1,-117.079479602,32.595311645,6306183.21976,1797398.45453,"NONE","SanLOM","NONE","NONE","0132.05","Santa Fe Meats","",0,"cns/address"
"2013-07-09T",167,"","","2013-07-09T",112269,"ACTIVE",47,"1987-04-07T","2013-09-30T","PERILS OF PAULINE FOOD PRODUCTIONS","3770 MISSION BLVD, SAN DIEGO, CA  92109",-1,-117.252971843,32.7840861928,6253409.03382,1866549.95035,"NONE","SanMDT","NONE","NONE","0076.00","Saskas","",0,"cns/address"
"2013-07-09T",168,"","","2013-07-09T",115870,"ACTIVE",41,"1982-01-18T","2013-10-31T","LEUNG, KAMLING","320 N MIDWAY DR, STE B, ESCONDIDO, CA  92027",-1,-117.049955524,33.1355632551,6316784.70895,1993891.04731,"NONE","SanPRK","NONE","NONE","0202.09","Bamboo House Restaurant","",60,"cns/address"
"2013-07-09T",169,"","","2013-07-09T",117568,"ACTIVE",47,"1982-01-13T","2013-08-31T","WATER VIEW RESTAURANTS INC","861 W HARBOR DR, SAN DIEGO, CA  92101",-1,-117.17006071,32.7091210658,6278649.91876,1839040.213,"NONE","SanCHO","NONE","NONE","0054.00","Edgewater Grill","",0,"cns/address"
"2013-07-09T",170,"","","2013-07-09T",117783,"ACTIVE",47,"1982-03-29T","2013-12-31T","AMERICAN GOLF CORPORATION","7380 GOLFCREST PL, SAN DIEGO, CA  92119",-1,-117.032782624,32.8015870489,6321129.28,1872337.868,"NONE","SanLAP","NONE","NONE","0098.01","Mission Trails Golf Course","2951 28TH ST, # 3000 SANTA MONICA, CA  90405-2987",0,"cns/address"
"2013-07-09T",171,"","","2013-07-09T",120174,"ACTIVE",47,"1982-09-10T","2014-02-28T","HOST INTERNATIONAL INC","3665 N HARBOR DR, SAN DIEGO, CA  92101",-1,-117.198285847,32.7293876565,6270034.98058,1846491.63107,"NONE","SanELC","NONE","NONE","0062.00","Host International Inc","6905 ROCKLEDGE DR, # MS 7-1 ATTN LEGAL DEPT BETHESDA, MD  20817-1828",772,"cns/seginterp"
"2013-07-09T",172,"","","2013-07-09T",121695,"ACTIVE",55,"1982-05-28T","2014-05-31T","SOUTHWEST AIRLINES CO","3225 N HARBOR DR, COMMUTER TERMINAL, SAN DIEGO, CA  92101",-1,-117.191390728,32.729185619,6272154.75389,1846398.90778,"NONE","SanMSH","NONE","NONE","0062.00","Southwest Airlines","PO BOX 36611 DALLAS, TX  75235",45,"cns/seginterp"
"2013-07-09T",173,"","","2013-07-09T",123085,"ACTIVE",48,"1982-06-10T","2014-05-31T","DENTAP INC","2901-03 MISSION BLVD, SAN DIEGO, CA  92109",-1,-117.252492331,32.7823943156,6253550.486,1865932.978,"NONE","SanSOU","NONE","NONE","0076.00","Beach Comber","",0,"cns/segmid"
"2013-07-09T",174,"","","2013-07-09T",123421,"ACTIVE",48,"1982-10-05T","2014-01-31T","RUSSELL, JAMES A","1587 E VISTA WAY, A & B, VISTA, CA  92084",-1,-117.225109158,33.2226106125,6263464.3974,2026018.61388,"NONE","SanGOL","NONE","NONE","0192.07","Jim Vista Lounge","",2,"cns/address"
"2013-07-09T",175,"","","2013-07-09T",124120,"ACTIVE",41,"1982-06-25T","2013-10-31T","F P G RESTAURANT CORP","10330 FRIARS RD, STE 101 102 & 103, SAN DIEGO, CA  92120",-1,-117.101787889,32.7903602529,6299892.07692,1868419.38462,"NONE","SanCAS","NONE","NONE","0095.09","Filippis Pizza Grotto","",298,"cns/seginterp"
"2013-07-09T",176,"","","2013-07-09T",124196,"ACTIVE",21,"1982-07-22T","2013-06-30T","VONS COMPANIES INC THE","671 S RANCHO SANTA FE RD, SAN MARCOS, CA  92078",-1,-117.206639844,33.1332166395,6268813.99051,1993441.294,"NONE","NONE","NONE","NONE","0200.29","Vons 2174","PO BOX 29096 PHOENIX, AZ  85038-9096",16,"cns/address"
"2013-07-09T",177,"","","2013-07-09T",124560,"ACTIVE",64,"1982-08-18T","2013-10-31T","OLD GLOBE THEATRE","1363 OLD GLOBE WAY, SAN DIEGO, CA  92101-1642",-1,-117.15142734,32.7326094344,6284455.40704,1847535.99497,"NONE","SanFAI","NONE","NONE","0056.00","Old Globe Theatre The","PO BOX 122171 SAN DIEGO, CA  92112",764,"cns/seginterp"
"2013-07-09T",178,"","","2013-07-09T",126510,"ACTIVE",47,"1983-01-13T","2013-10-31T","DOS STARS INC","2489 SAN DIEGO AVE, SAN DIEGO, CA  92110",-1,-117.194641979,32.7523084201,6271231.12487,1854820.75874,"NONE","SanNRM","NONE","NONE","0065.00","Old Town Mexican Cafe","",0,"cns/address"
"2013-07-09T",179,"","","2013-07-09T",128982,"ACTIVE",41,"1982-11-29T","2014-02-28T","NAZARIAN, ALBERT","406 MAIN ST, VISTA, CA  92084",-1,-117.240021388,33.2037740237,6258839.08378,2019208.09952,"NONE","SanSTH","NONE","NONE","0195.02","Village Cafe","",14,"cns/address"
"2013-07-09T",180,"","","2013-07-09T",129374,"ACTIVE",41,"1983-03-14T","2014-04-30T","IMPERIAL MANDARIN RESTAURANT INC","3904 CONVOY ST, STE 102, SAN DIEGO, CA  92111",-1,-117.154536015,32.8147903624,6283758.83561,1877444.38991,"NONE","SanEAS","NONE","NONE","0085.11","Imperial Mandarin Restaurant","",0,"cns/address"
"2013-07-09T",181,"","","2013-07-09T",129868,"ACTIVE",41,"1982-11-05T","2013-08-31T","APPARITO, GASPARE","5156 WARING RD, SAN DIEGO, CA  92120",-1,-117.08203828,32.7918430208,6305965.77421,1868909.85762,"NONE","SanOOL","NONE","NONE","0096.04","Mona Lisa Italian Foods","",0,"cns/address"
"2013-07-09T",182,"","","2013-07-09T",131155,"ACTIVE",20,"1982-12-27T","2014-05-31T","SHAMOUN, YOUSIF M","1705 S 39TH ST, SAN DIEGO, CA  92113",-1,-117.110066006,32.6884520435,6297042.21926,1831362.56761,"NONE","SanMAR","NONE","NONE","0036.03","Tom Boy Market","",0,"cns/address"
"2013-07-09T",183,"","","2013-07-09T",131809,"ACTIVE",21,"1983-04-18T","2013-06-30T","VONS COMPANIES INC THE","10016 SCRIPPS RANCH BLVD, SAN DIEGO, CA  92131",-1,-117.11010287,32.9062701523,6297684.6349,1910612.34519,"NONE","SanCLN","NONE","NONE","0170.22","Vons 4018","PO BOX 29096 PHOENIX, AZ  85038-9096",34,"cns/address"
"2013-07-09T",184,"","","2013-07-09T",132502,"ACTIVE",48,"1983-02-23T","2014-02-28T","FRED DEMEO INC","999 NATIONAL CITY BLVD, NATIONAL CITY, CA  91950",-1,-117.097551447,32.6517451944,6300784.03963,1817975.78664,"NONE","SanSTO","NONE","NONE","0117.00","Trophy Lounge","860 GARNET AVE SAN DIEGO, CA  92109",29,"cns/seginterp"
"2013-07-09T",185,"","","2013-07-09T",134058,"ACTIVE",48,"1983-04-05T","2013-08-31T","DIRTY DANS INC","4000 KEARNY MESA RD, SAN DIEGO, CA  92111",-1,-117.151717797,32.8149153689,6284625.07091,1877482.37144,"NONE","NONE","NONE","NONE","0085.11","Pure Platinum","",0,"cns/address"
"2013-07-09T",186,"","","2013-07-09T",136604,"ACTIVE",41,"1983-08-19T","2014-04-30T","BLAIR, CYNTHIA S","610-16 W MARKET ST, SAN DIEGO, CA  92101",-1,-117.164226478,32.7114657497,6280452.001,1839877.5,"NONE","SanCOR","NONE","NONE","0053.00","Kansas City Barbeque","",0,"cns/segmid"
"2013-07-09T",187,"","","2013-07-09T",136761,"ACTIVE",41,"1983-06-30T","2014-01-31T","VAZZANA, MARIO A","1776 SUNSET CLIFFS BLVD, SAN DIEGO, CA  92107",-1,-117.249377674,32.7429126516,6254370.05916,1851559.183,"NONE","SanCHE","NONE","NONE","0073.01","Espresso Pizza","",0,"cns/address"
"2013-07-09T",188,"","","2013-07-09T",137245,"ACTIVE",48,"1983-05-31T","2014-05-31T","CLUB MARINA CORPORATION","1310 SCOTT ST, SAN DIEGO, CA  92106",-1,-117.228867271,32.7234699077,6260610.16092,1844425.48809,"NONE","SanAZL","NONE","NONE","0214.00","Club Marina Corporation","",0,"cns/address"
"2013-07-09T",189,"","","2013-07-09T",138561,"SUREND",47,"1987-05-06T","2014-01-31T","TSEMETZIN, STEVE","2045 E VALLEY PKWY, ESCONDIDO, CA  92027",-1,-117.097130991,33.162632995,6302423.712,2003854.192,"NONE","SanCRR","NONE","NONE","0202.09","Truly Yours Family Restaurant","202 MESILLA VIEW DR CHAPARRAL, NM  88081",0,"cns/segmid"
"2013-07-09T",190,"","","2013-07-09T",143965,"ACTIVE",47,"1983-11-04T","2013-05-31T","SILVA INVESTMENTS INC","1304-06 ROSECRANS ST, SAN DIEGO, CA  92106",-1,-117.218740045,32.7369105604,6263770.196,1849286.524,"NONE","SanFRM","NONE","NONE","0214.00","Casa De Loma","",0,"cns/segmid"
"2013-07-09T",191,"","","2013-07-09T",145588,"ACTIVE",41,"1983-11-07T","2013-08-31T","OCEANSIDE SEAFOODS INC","3179 CARLSBAD BLVD, CARLSBAD, CA  92008",-1,-117.299972933,33.20023675,6240488.75625,2018100.50396,"NONE","SanSWA","NONE","NONE","0180.00","Harbor Fish Cafe","1010 S MAIN AVE FALLBROOK, CA  92028",678,"cns/address"
"2013-07-09T",192,"","","2013-07-09T",146415,"ACTIVE",20,"1983-09-21T","2014-05-31T","RULON, JOHN C","5465 MISSION CENTER RD, SAN DIEGO, CA  92108",-1,-117.15352728,32.7739765357,6283940.06673,1862592.2963,"NONE","SanGRN","NONE","NONE","0093.04","Mission Center Texaco","",0,"cns/address"
"2013-07-09T",193,"","","2013-07-09T",147384,"ACTIVE",20,"1983-11-30T","2014-04-30T","PHILCOHN INC","6041 MISSION GORGE RD, SAN DIEGO, CA  92120",-1,-117.097405209,32.7841161585,6301220.48402,1866136.59326,"NONE","NONE","NONE","NONE","0096.04","Iowa Meat Farms","",0,"cns/address"
"2013-07-09T",194,"","","2013-07-09T",147444,"ACTIVE",47,"1983-11-14T","2014-04-30T","MCPS IRISH PUB INC","1107 ORANGE AVE, CORONADO, CA  92118",-1,-117.178744404,32.6845099523,6275899.06483,1830109.56967,"NONE","SanQUL","NONE","NONE","0218.00","Mcps Irish Pub","",0,"cns/address"
"2013-07-09T",195,"","","2013-07-09T",149653,"ACTIVE",47,"1984-04-03T","2014-03-31T","EL FANDANGO L-PSHIP","2734 CALHOUN ST, SAN DIEGO, CA  92110",-1,-117.19670346,32.754278229,6270603.83567,1855543.18596,"NONE","SanSHE","NONE","NONE","0065.00","El Fandango Restaurant","",0,"cns/address"
"2013-07-09T",196,"","","2013-07-09T",149992,"ACTIVE",47,"1984-02-09T","2013-12-31T","MARIE CALLENDER PIE SHOPS INC","330 F ST, CHULA VISTA, CA  91910",-1,-117.080888633,32.6407220838,6305880.90688,1813923.89754,"NONE","SanCRT","NONE","NONE","0123.02","Marie Callenders 103","6075 POPLAR AVE, STE 800 ATTN VICKI MEMPHIS, TN  38119-4717",0,"cns/address"
"2013-07-09T",197,"","","2013-07-09T",150175,"ACTIVE",20,"1984-04-20T","2014-05-31T","STRAM INC","2205 VIA DE LA VALLE, SAN DIEGO, CA  92014",-1,-117.255397924,32.9795459967,6253349.16568,1937671.26765,"NONE","SanSHR","NONE","NONE","0083.24","Del Mar Shell","703 PALOMAR AIRPORT RD, STE 100 CARLSBAD, CA  92011-1041",114,"cns/seginterp"
"2013-07-09T",198,"","","2013-07-09T",150181,"ACTIVE",41,"1984-01-26T","2014-01-31T","ALFRED DEPHILIPPIS ENTERPRISES INC","82-84 BROADWAY, CHULA VISTA, CA  91910",-1,-117.092429307,32.638541643,6302321.823,1813159.083,"NONE","SanTER","NONE","NONE","0125.02","Filippis Pizza Grotto","",0,"cns/segmid"
"2013-07-09T",199,"","","2013-07-09T",150871,"ACTIVE",21,"1984-04-19T","2014-01-31T","HANNA, RAZZOKI M","2567 UNIVERSITY AVE, SAN DIEGO, CA  92104",-1,-117.136479399,32.7482795455,6289100.63225,1853197.89323,"NONE","SanHAR","NONE","NONE","0014.00","United Market Liquor","",0,"cns/address"
"2013-07-09T",200,"","","2013-07-09T",151307,"ACTIVE",21,"1984-08-06T","2013-07-31T","RED & WHITE SUPERETTE INC","700 N COAST HWY, OCEANSIDE, CA  92054",-1,-117.38892226,33.2026930901,6213290.706,2019279.806,"NONE","SanTRL","NONE","NONE","0182.00","Red & White","",0,"cns/segmid"
"2013-07-09T",201,"","","2013-07-09T",151670,"ACTIVE",21,"1984-03-12T","2013-10-31T","PUTRUS, AMIER H","2996 NATIONAL AVE, SAN DIEGO, CA  92113",-1,-117.12964725,32.6962729758,6291041.62577,1834258.35238,"NONE","SanLIT","NONE","NONE","0039.02","Ideal Market 2","",0,"cns/address"
"2013-07-09T",202,"","","2013-07-09T",151824,"ACTIVE",57,"1984-06-14T","2014-04-30T","FAIRBANKS RANCH COUNTRY CLUB INC","15150 SAN DIEGUITO RD, SAN DIEGO, CA  92067",-1,-117.205310856,32.9806849912,6268712.33017,1937941.25094,"NONE","NONE","NONE","NONE","0170.29","","PO BOX 8586 RANCHO SANTA FE, CA  92067",386,"cns/seginterp"
"2013-07-09T",203,"","","2013-07-09T",151954,"ACTIVE",21,"1984-02-21T","2014-04-30T","KATTOULA, HARITH H","6405 UNIVERSITY AVE, SAN DIEGO, CA  92115",-1,-117.0580392,32.7544592886,6313235.57822,1855250.32126,"NONE","SanBOR","NONE","NONE","0029.03","Party House Liquor","",0,"cns/address"
"2013-07-09T",204,"","","2013-07-09T",152493,"ACTIVE",21,"1984-03-26T","2013-06-30T","LORESCO, ALEJANDRO","275 E ST, CHULA VISTA, CA  91910",-1,-117.080107383,32.6454495695,6306135.10083,1815642.0128,"NONE","SanFOX","NONE","NONE","0123.03","7 Eleven Food Store","",0,"cns/address"
"2013-07-09T",205,"","","2013-07-09T",154665,"ACTIVE",41,"1984-06-11T","2013-12-31T","DENNYS INC","487 HARBOR DR S, OCEANSIDE, CA  92054",-1,-117.390205792,33.2072790295,6212916.35897,2020952.61538,"NONE","NONE","NONE","NONE","0183.00","Dennys Restaurant 1935","203 E MAIN ST, LEGAL DEP P 12 07 LICENSING SPARTANBURG, SC  29319-0001",120,"cns/seginterp"
"2013-07-09T",206,"","","2013-07-09T",155774,"ACTIVE",47,"1984-05-18T","2014-04-30T","BRIGANTINE THE","2725 SHELTER ISLAND DR, SAN DIEGO, CA  92106",-1,-117.228549236,32.7207806489,6260698.78877,1843446.13492,"NONE","SanHOR","NONE","NONE","0071.00","","7889 OSTROW ST SAN DIEGO, CA  92111-3602",0,"cns/address"
"2013-07-09T",207,"","","2013-07-09T",156354,"ACTIVE",41,"1984-06-13T","2014-04-30T","SALAMEH, PETER K","1010 S COAST HIGHWAY 101, ENCINITAS, CA  92024",-1,-117.293386618,33.0389801429,6241916.25083,1959409.67901,"NONE","SanPET","NONE","NONE","0175.01","St Germains Cafe","",0,"cns/address"
"2013-07-09T",208,"","","2013-07-09T",156551,"ACTIVE",42,"1985-02-26T","2014-01-31T","SHEMRAN INC","4001 W POINT LOMA BLVD, SAN DIEGO, CA  92110-5641",-1,-117.222319237,32.7534662739,6262725.7664,1855320.24691,"NONE","SanGAS","NONE","NONE","0068.02","","",0,"cns/address"
"2013-07-09T",209,"","","2013-07-09T",158070,"SUREND",21,"1984-06-07T","2013-10-31T","SHAMOO, KAMAL YOUSIF","1694 NATIONAL AVE, SAN DIEGO, CA  92113",-1,-117.148370312,32.7034055014,6285303.94344,1836902.51761,"NONE","SanISL","NONE","NONE","0051.00","National Liquor House","10755 VIA DEL SOL SPRING VALLEY, CA  91978",0,"cns/address"
"2013-07-09T",210,"","","2013-07-09T",160424,"ACTIVE",21,"1984-11-29T","2013-06-30T","VONS COMPANIES INC THE","350 W EL NORTE PKWY, ESCONDIDO, CA  92026",-1,-117.042389448,33.1509222356,6319143.257,1999461.607,"NONE","NONE","NONE","NONE","0203.05","Vons 2049","PO BOX 29096 PHOENIX, AZ  85038-9096",0,"cns/segmid"
"2013-07-09T",211,"","","2013-07-09T",164089,"SUREND",47,"1985-04-01T","2013-12-31T","CARROWS RESTAURANTS INC","625 SATURN BLVD, SAN DIEGO, CA  92154",-1,-117.091717507,32.58651902,6302388.1449,1794229.5796,"NONE","NONE","NONE","NONE","0101.03","Carrows 0194","2200 FARADAY AVE, STE 250 CARLSBAD, CA  92008-7234",10,"cns/address"
"2013-07-09T",212,"","","2013-07-09T",164116,"ACTIVE",41,"1984-11-30T","2013-12-31T","COCOS RESTAURANTS INC","7398 CLAIREMONT MESA BLVD, SAN DIEGO, CA  92111",-1,-117.159497298,32.8332036403,6282293.01854,1884157.00007,"NONE","NONE","NONE","NONE","0085.11","Cocos 0606","2200 FARADAY AVE, STE 250 CARLSBAD, CA  92008-7234",0,"cns/address"
"2013-07-09T",213,"","","2013-07-09T",164119,"ACTIVE",41,"1984-11-26T","2013-12-31T","COCOS RESTAURANTS INC","10430 FRIARS RD, SAN DIEGO, CA  92120",-1,-117.098574101,32.7915844846,6300883.35344,1868856.74868,"NONE","NONE","NONE","NONE","0095.09","Cocos 608","2200 FARADAY AVE, STE 250 CARLSBAD, CA  92008-7234",0,"cns/address"
"2013-07-09T",214,"","","2013-07-09T",164620,"ACTIVE",41,"1984-11-21T","2013-10-31T","R & M YOUNG INC","1321 ENCINITAS BLVD, ENCINITAS, CA  92024",-1,-117.260608019,33.0465263755,6251987.68951,1962056.30025,"NONE","NONE","NONE","NONE","0174.03","Round Table Pizza","",1,"cns/address"
"2013-07-09T",215,"","","2013-07-09T",165506,"ACTIVE",41,"1985-01-22T","2013-06-30T","DO, BEVIS","7612 LINDA VISTA RD, STE 116 & 117, SAN DIEGO, CA  92111",-1,-117.157482555,32.8022082334,6282813.72514,1872874.46752,"NONE","NONE","NONE","NONE","0085.10","","",112,"cns/seginterp"
"2013-07-09T",216,"","","2013-07-09T",165822,"ACTIVE",21,"1984-12-28T","2013-06-30T","THRIFTY PAYLESS INC","1363 E VISTA WAY, VISTA, CA  92084",-1,-117.226175834,33.2185997344,6263124.53892,2024562.34831,"NONE","NONE","NONE","NONE","0192.07","Rite Aid Store 5642","2600 CAPITOL AVE, STE 300 SACRAMENTO, CA  95816-5930",771,"cns/seginterp"
"2013-07-09T",217,"","","2013-07-09T",166715,"ACTIVE",20,"1985-12-05T","2013-05-31T","ESCOBEDO, OFELIA E","3292 ROOSEVELT ST, CARLSBAD, CA  92008",-1,-117.34480758,33.1572822434,6226610.60176,2002613.24696,"NONE","NONE","NONE","NONE","0179.00","Lolas 7Up Market & Deli","",6,"cns/address"
"2013-07-09T",218,"","","2013-07-09T",166744,"ACTIVE",47,"1986-06-23T","2014-04-30T","STAR & CRESCENT BOAT COMPANY","1050 N HARBOR DR, SAN DIEGO, CA  92101",-1,-117.173729665,32.7166932709,6277545.76198,1841805.2067,"NONE","NONE","NONE","NONE","0054.00","Bay Cafe The","PO BOX 120751 SAN DIEGO, CA  92112-0751",16,"cns/address"
"2013-07-09T",219,"","","2013-07-09T",168445,"ACTIVE",47,"1986-06-23T","2014-05-31T","LI & LAW CORPORATION","4455 CLAIREMONT MESA BLVD, SAN DIEGO, CA  92117",-1,-117.195686418,32.834079078,6271179.86072,1884574.40763,"NONE","NONE","NONE","NONE","0085.04","Panda Country Restaurant","",0,"cns/address"
"2013-07-09T",220,"","","2013-07-09T",168447,"ACTIVE",21,"1985-02-22T","2013-07-31T","KASHAT, HARTH G","3392 UNIVERSITY AVE, SAN DIEGO, CA  92104",-1,-117.121015599,32.7491882915,6293857.94125,1853488.45364,"NONE","NONE","NONE","NONE","0016.00","","",0,"cns/address"
"2013-07-09T",221,"","","2013-07-09T",169355,"ACTIVE",21,"1985-04-23T","2014-05-31T","DABISH, BAHJET","5102 IMPERIAL AVE, SAN DIEGO, CA  92114",-1,-117.084662136,32.705018023,6304906.54343,1837326.33455,"NONE","NONE","NONE","NONE","0031.11","Green Cat Liquor","",0,"cns/address"
"2013-07-09T",222,"","","2013-07-09T",170479,"ACTIVE",41,"1985-05-13T","2013-09-30T","SHIEN OF OSAKA INC","16769 BERNARDO CENTER DR, STE K11, SAN DIEGO, CA  92128",-1,-117.073734503,33.0184538281,6309169.01692,1951338.72562,"NONE","NONE","NONE","NONE","0170.14","Akai Hana","",0,"cns/address"
"2013-07-09T",223,"","","2013-07-09T",171443,"ACTIVE",47,"1985-12-16T","2014-03-31T","COLLINS, ROBERT A","2131 SHELTER ISLAND DR, SAN DIEGO, CA  92106",-1,-117.225687981,32.7163316663,6261563.63843,1841819.21064,"NONE","NONE","NONE","NONE","0071.00","Bay Club Hotel & Marina","",0,"cns/address"
"2013-07-09T",224,"","","2013-07-09T",171633,"ACTIVE",21,"1985-05-13T","2014-03-31T","GABBARA, ANN E","6196 FEDERAL BLVD, SAN DIEGO, CA  92114",-1,-117.063875025,32.7291695277,6311369.56905,1846062.96288,"NONE","NONE","NONE","NONE","0030.03","Big K Market","",0,"cns/address"
"2013-07-09T",225,"","","2013-07-09T",171655,"ACTIVE",20,"1985-06-06T","2014-05-31T","SHIMABUKURO, GINA S","6150 YARROW DR, STE C, CARLSBAD, CA  92011",-1,-117.273519677,33.1238234495,6248307.39683,1990218.13863,"NONE","NONE","NONE","NONE","0221.00","Palomar Deli","",0,"cns/address"
"2013-07-09T",226,"","","2013-07-09T",173050,"ACTIVE",21,"1985-06-17T","2013-06-30T","CARDIFF SEASIDE MARKET INC","2087 SAN ELIJO AVE, ENCINITAS, CA  92007",-1,-117.282408504,33.0220349253,6245219.38323,1953210.98789,"NONE","NONE","NONE","NONE","0174.01","Cardiff Seaside Market","2087 SAN ELIJO AVE CARDIFF, CA  92007",62,"cns/address"
"2013-07-09T",227,"","","2013-07-09T",173807,"ACTIVE",41,"1985-07-23T","2013-12-31T","AMERICAN GOLF CORPORATION","1580 SUN VALLEY RD, SOLANA BEACH, CA  92075",-1,-117.239882432,32.9994653572,6258175.84291,1944873.04011,"NONE","NONE","NONE","NONE","0173.05","Lomas Santa Fe Executive Golf Course","2951 28TH ST, # 3000 SANTA MONICA, CA  90405-2987",318,"cns/seginterp"
"2013-07-09T",228,"","","2013-07-09T",176179,"ACTIVE",41,"1985-09-30T","2013-12-31T","CEC ENTERTAINMENT INC","1143 HIGHLAND AVE, NATIONAL CITY, CA  91950",-1,-117.098861367,32.6747578494,6300449.01289,1826351.88619,"NONE","NONE","NONE","NONE","0117.00","Chuck E Cheeses 439","PO BOX 152077 IRVING, TX  75015-2077",43,"cns/address"
"2013-07-09T",229,"","","2013-07-09T",176192,"ACTIVE",41,"1985-10-07T","2013-12-31T","CEC ENTERTAINMENT INC","9840 HIBERT ST, SAN DIEGO, CA  92131",-1,-117.114527533,32.9146251776,6296351.85788,1913663.42294,"NONE","NONE","NONE","NONE","0170.22","Chuck E Cheeses 443","PO BOX 152077 IRVING, TX  75015-2077",0,"cns/address"
"2013-07-09T",230,"","","2013-07-09T",176377,"ACTIVE",51,"1986-06-30T","2013-07-31T","FRATERNAL ORDER OF EAGLES NO 506","3149 MAIN ST, CHULA VISTA, CA  91911",-1,-117.065428436,32.5944869785,6310508.60638,1797064.2716,"NONE","NONE","NONE","NONE","0132.06","Fraternal Order Of Eagles 3142","",0,"cns/address"
"2013-07-09T",231,"","","2013-07-09T",177649,"SUREND",41,"1985-10-10T","2013-09-30T","KALAMARAS, STELLA","1027 UNIVERSITY AVE, SAN DIEGO, CA  92103-3309",-1,-117.154624808,32.7480814944,6283520.9725,1853173.756,"NONE","NONE","NONE","NONE","0007.00","California Cuisine","P O BOX 600310 SAN DIEGO, CA  92160",0,"cns/address"
"2013-07-09T",232,"","","2013-07-09T",178084,"ACTIVE",41,"1986-01-03T","2014-04-30T","CHUNG, HYUN S","439 HORTON PLZ, SAN DIEGO, CA  92101",-1,-117.173027906,32.7389820431,6277833.395,1849912.674,"NONE","NONE","NONE","NONE","0053.00","Wonder Sushi Plus","PO BOX 1215 RANCHO SANTA FE, CA  92067",0,"cns/segmid"
"2013-07-09T",233,"","","2013-07-09T",178136,"ACTIVE",47,"1985-09-24T","2013-06-30T","LEINENBACH, JOSEPH R","5505 JACKSON DR, LA MESA, CA  91942",-1,-117.018283478,32.7798332172,6325526.24746,1864389.89021,"NONE","NONE","NONE","NONE","0150.00","Hearth House The","",20,"cns/address"
"2013-07-09T",234,"","","2013-07-09T",178270,"ACTIVE",41,"1986-02-28T","2013-12-31T","AMERICAN GOLF CORPORATION","1439 SWEETWATER RD, NATIONAL CITY, CA  91950",-1,-117.083778449,32.6607177111,6305049.48538,1821206.12963,"NONE","NONE","NONE","NONE","0121.02","National City Golf Course","2951 28TH ST, # 3000 SANTA MONICA, CA  90405-2987",63,"cns/address"
"2013-07-09T",235,"","","2013-07-09T",178318,"ACTIVE",44,"1985-09-30T","2013-08-31T","HELGRENS OCEANSIDE SPORTFISHING","315 HARBOR DR S, OCEANSIDE, CA  92054",-1,-117.388928574,33.2066035879,6213304.31672,2020702.59734,"NONE","NONE","NONE","NONE","0183.00","Helgrens Oceanside Sportfishing","",1,"cns/address"
"2013-07-09T",236,"","","2013-07-09T",178319,"ACTIVE",44,"1985-09-30T","2013-09-30T","HELGRENS OCEANSIDE SPORTFISHING","315 HARBOR DR S, OCEANSIDE, CA  92054",-1,-117.388928574,33.2066035879,6213304.31672,2020702.59734,"NONE","NONE","NONE","NONE","0183.00","Helgrens Oceanside Sportfishing","",1,"cns/address"
"2013-07-09T",237,"","","2013-07-09T",178680,"ACTIVE",21,"1985-11-04T","2013-10-31T","JAMOO, MIHSIN E","4597 PARK BLVD, SAN DIEGO, CA  92116",-1,-117.146018553,32.7607878328,6286206.80813,1857773.89304,"NONE","NONE","NONE","NONE","0010.00","Buds Liquor","",0,"cns/address"
"2013-07-09T",238,"","","2013-07-09T",178683,"ACTIVE",41,"1985-10-09T","2014-03-31T","TAJRAN, MIKE A","5050 NEWPORT AVE, SAN DIEGO, CA  92107",-1,-117.251754656,32.7477166763,6253655.98157,1853314.04421,"NONE","NONE","NONE","NONE","0075.02","Newport Pizza & Ale House","",0,"cns/address"
"2013-07-09T",239,"","","2013-07-09T",178684,"ACTIVE",21,"1986-07-08T","2013-06-30T","THRIFTY PAYLESS INC","12666 POWAY RD, POWAY, CA  92064",-1,-117.056647029,32.9562700398,6314231.66038,1928672.98902,"NONE","NONE","NONE","NONE","0170.40","Rite Aid Store 5637","2600 CAPITOL AVE, STE 300 SACRAMENTO, CA  95816-5930",0,"cns/address"
"2013-07-09T",240,"","","2013-07-09T",179243,"ACTIVE",20,"1985-12-19T","2013-06-30T","PNS STORES INC","1085 E MAIN ST, EL CAJON, CA  92021",-1,-116.944960524,32.7953323357,6348100.10371,1869870.92602,"NONE","NONE","NONE","NONE","0157.03","Big Lots 4012","300 PHILLIPI RD, ATTN TAX DEPT COLUMBUS, OH  43228-5311",5,"cns/address"
"2013-07-09T",241,"","","2013-07-09T",179477,"ACTIVE",21,"1986-06-02T","2013-06-30T","VONS COMPANIES INC THE","13255 BLACK MOUNTAIN RD, SAN DIEGO, CA  92129",-1,-117.125227255,32.957902209,6293200.4733,1929436.49654,"NONE","NONE","NONE","NONE","0170.36","Vons 2081","PO BOX 29096 PHOENIX, AZ  85038-9096",0,"cns/address"
"2013-07-09T",242,"","","2013-07-09T",179779,"ACTIVE",41,"1985-12-23T","2013-09-30T","CHAN, HELEN","9323-27 MIRA MESA BLVD, SAN DIEGO, CA  92126",-1,-117.15069549,32.9121778761,6285244.854,1912866.971,"NONE","NONE","NONE","NONE","0083.59","Szechuan House","",0,"cns/segmid"
"2013-07-09T",243,"","","2013-07-09T",180037,"ACTIVE",41,"1985-12-20T","2013-07-31T","CALIFORNIA RESTAURANT MGMT SYSTEMS","425 ROBINSON AVE, SAN DIEGO, CA  92103",-1,-117.160768442,32.7468065471,6281627.98031,1852726.33333,"NONE","NONE","NONE","NONE","0003.00","","",0,"cns/address"
"2013-07-09T",244,"","","2013-07-09T",181721,"ACTIVE",41,"1986-01-14T","2014-01-31T","TOBEY, GARY C","GOLF COURSE DR GOLF COURSE, SAN DIEGO, CA  92102",-1,-117.137038597,32.7246008136,6288855.405,1844584.24,"NONE","NONE","NONE","NONE","0041.00","19Th Hole","PO BOX 1314 JAMUL, CA  91935",0,"cns/segmid"
"2013-07-09T",245,"","","2013-07-09T",181950,"ACTIVE",47,"1986-02-03T","2013-10-31T","TOM RANGLAS INC","1670 COAST BLVD, DEL MAR, CA  92014",-1,-117.267924789,32.9621967763,6249446.145,1931396.364,"NONE","NONE","NONE","NONE","0172.00","Poseidon Restaurant","",0,"cns/address"
"2013-07-09T",246,"","","2013-07-09T",183247,"ACTIVE",48,"1991-01-31T","2013-07-31T","HALL, RALPH D","5038-1/2 NEWPORT AVE, SAN DIEGO, CA  92107",-1,-117.252450274,32.7477093657,6253442.08,1853313.44,"NONE","NONE","NONE","NONE","0075.02","Cheswicks West","",0,"cns/segmid"
"2013-07-09T",247,"","","2013-07-09T",184378,"ACTIVE",41,"1986-03-24T","2013-08-31T","ROSSMAN, BARBARA A","475 HOTEL CIR S, SAN DIEGO, CA  92108-3402",-1,-117.168331844,32.7631144797,6279354.74198,1858680.08609,"NONE","NONE","NONE","NONE","0089.02","Bunz","",25,"cns/address"
"2013-07-09T",248,"","","2013-07-09T",184526,"ACTIVE",21,"1986-04-28T","2013-06-30T","HABIB, AMIR M","14328 OLDE HIGHWAY 80, EL CAJON, CA  92021",-1,-116.873908043,32.8464504229,6370046.08027,1888331.62914,"NONE","NONE","NONE","NONE","0155.01","","",0,"cns/address"
"2013-07-09T",249,"","","2013-07-09T",184855,"ACTIVE",41,"1986-07-14T","2014-05-31T","2 FRIENDS INC","988 CIVIC CENTER DR, STE A, VISTA, CA  92083",-1,-117.236981214,33.1907630893,6259724.17161,2014465.4029,"NONE","NONE","NONE","NONE","0196.02","Mama N Papas Pizza Grotto","988 CIVIC CENTER DR , STE A VISTA, CA  92083",0,"cns/address"
"2013-07-09T",250,"","","2013-07-09T",185916,"ACTIVE",21,"1986-08-20T","2013-06-30T","KONJA, TALAL J","7245 BROADWAY, LEMON GROVE, CA  91945",-1,-117.041817702,32.742267586,6318189.08258,1850776.27747,"NONE","NONE","NONE","NONE","0144.00","Grove Liquor","",0,"cns/address"
"2013-07-09T",251,"","","2013-07-09T",186648,"ACTIVE",21,"1986-08-27T","2013-06-30T","TRADER JOES COMPANY","1211 GARNET AVE, SAN DIEGO, CA  92109",-1,-117.247731611,32.7979891395,6255067.94493,1871592.80373,"NONE","NONE","NONE","NONE","0079.10","Trader Joes 21","800 S SHAMROCK AVE MONROVIA, CA  91016-6346",0,"cns/address"
"2013-07-09T",252,"","","2013-07-09T",187372,"ACTIVE",21,"1986-07-23T","2014-02-28T","LAM, LAN N","703-05 E VALLEY PKWY, ESCONDIDO, CA  92025",-1,-117.029260236,33.1650513267,6323200.008,2004572.094,"NONE","NONE","NONE","NONE","0202.02","Snack & Bottle Shop","",0,"cns/segmid"
"2013-07-09T",253,"","","2013-07-09T",187884,"ACTIVE",20,"1986-07-16T","2014-04-30T","GORMAN, GARY W","495 S MEADOWBROOK DR, SAN DIEGO, CA  92114",-1,-117.02572899,32.6979741896,6323016.23902,1834623.52505,"NONE","NONE","NONE","NONE","0031.07","Gas Depot The","",0,"cns/address"
"2013-07-09T",254,"","","2013-07-09T",188439,"ACTIVE",47,"1986-08-18T","2013-09-30T","ADAMS & ALBIES INC","1201 HOTEL CIR S, SAN DIEGO, CA  92108",-1,-117.173390707,32.7588829334,6277785.96095,1857154.24841,"NONE","NONE","NONE","NONE","0089.02","Albies Beef Inn","",0,"cns/address"
"2013-07-09T",255,"","","2013-07-09T",188635,"ACTIVE",64,"1986-10-16T","2014-05-31T","SAN DIEGO REPERTORY THEATRE INC","79 HORTON PLZ, SAN DIEGO, CA  92101",-1,-117.173027906,32.7389820431,6277833.395,1849912.674,"NONE","NONE","NONE","NONE","0053.00","San Diego Repertory Theatre Inc","",0,"cns/segmid"
"2013-07-09T",256,"","","2013-07-09T",188643,"ACTIVE",47,"1986-08-07T","2014-03-31T","CITIZENS DEVELOPMENT CORP","1750 SAN PABLO DR, SAN MARCOS, CA  92078",-1,-117.201826641,33.1260849526,6270263.70974,1990833.03704,"NONE","NONE","NONE","NONE","0200.26","Lake San Marcos Country Club","5505 CANCHA DE GOLF RANCHO SANTA FE, CA  92091-1416",0,"cns/address"
"2013-07-09T",257,"","","2013-07-09T",188968,"ACTIVE",21,"1986-08-28T","2013-06-30T","VONS COMPANIES INC THE","7788 REGENTS RD, SAN DIEGO, CA  92122",-1,-117.22372893,32.862500613,6262662.85307,1894994.31813,"NONE","NONE","NONE","NONE","0083.64","Vons 2012","PO BOX 29096 PHOENIX, AZ  85038-9096",0,"cns/address"
"2013-07-09T",258,"","","2013-07-09T",189078,"ACTIVE",47,"1986-07-21T","2013-08-31T","SAN DIEGO HAPPY FOODS INC","1031 S COAST HIGHWAY 101, STE 101, ENCINITAS, CA  92024",-1,-117.292472994,33.0392006802,6242197.02782,1959487.11679,"NONE","NONE","NONE","NONE","0175.01","Sushi Do","",0,"cns/address"
"2013-07-09T",259,"","","2013-07-09T",189720,"ACTIVE",41,"1986-07-28T","2013-10-31T","TRIEGLAFF, ARLO J","3422 TRIPP CT, SAN DIEGO, CA  92121",-1,-117.234429811,32.9152790849,6259558.3273,1914227.5956,"NONE","NONE","NONE","NONE","0083.39","Atlanta West Catering","",0,"cns/address"
"2013-07-09T",260,"","","2013-07-09T",190097,"ACTIVE",21,"1986-11-07T","2013-07-31T","ATTISHA, BOUSHRAH PETROS","4131 HOME AVE, SAN DIEGO, CA  92105",-1,-117.106246119,32.7236084918,6298322.53804,1844144.02891,"NONE","NONE","NONE","NONE","0034.01","Andersons Market Liquor And Deli","",0,"cns/address"
"2013-07-09T",261,"","","2013-07-09T",190399,"ACTIVE",54,"1986-08-20T","2013-09-30T","BAHIA STERNWHEELERS INC","998 W MISSION BAY DR, SAN DIEGO, CA  92109",-1,-117.246108521,32.7741610358,6255483.87225,1862918.66049,"NONE","NONE","NONE","NONE","0076.00","Bahia Beau","",0,"cns/address"
"2013-07-09T",262,"","","2013-07-09T",190570,"ACTIVE",21,"1986-08-18T","2013-10-31T","ALKATIB, ADIL","6139 BALBOA AVE, SAN DIEGO, CA  92111",-1,-117.175195002,32.8196420374,6277427.43827,1879265.27778,"NONE","NONE","NONE","NONE","0085.09","Crest Balboa Liquor & Deli","",0,"cns/address"
"2013-07-09T",263,"","","2013-07-09T",191483,"ACTIVE",41,"1986-11-26T","2014-03-31T","CORTESNANEZ, GUILLERMO","304 W MISSION RD, SAN MARCOS, CA  92069",-1,-117.16719336,33.1441339318,6280924.22333,1997304.91519,"NONE","NONE","NONE","NONE","0200.21","Mr Taco Mexican Food","",0,"cns/address"
"2013-07-09T",264,"","","2013-07-09T",191922,"ACTIVE",20,"1987-10-07T","2013-06-30T","CIRCLE K STORES INC","795 SHADOWRIDGE DR, VISTA, CA  92083",-1,-117.221954575,33.1663649548,6264238.31313,2005545.24238,"NONE","NONE","NONE","NONE","0199.05","Circle K Store 1984","255 E RINCON ST, STE 100 CORONA, CA  92879-1368",966,"cns/seginterp"
"2013-07-09T",265,"","","2013-07-09T",192208,"ACTIVE",21,"1986-12-09T","2013-06-30T","TRADER JOES COMPANY","2570 VISTA WAY, OCEANSIDE, CA  92054",-1,-117.329694927,33.180759224,6231323.9822,2011106.74691,"NONE","NONE","NONE","NONE","0185.04","Trader Joes 22","800 S SHAMROCK AVE MONROVIA, CA  91016-6346",45,"cns/address"
"2013-07-09T",266,"","","2013-07-09T",192271,"ACTIVE",47,"1987-04-28T","2014-01-31T","LERUS CORPORATION","5302 NAPA ST, SAN DIEGO, CA  92110",-1,-117.197812495,32.7660695792,6270301.87282,1859836.34793,"NONE","NONE","NONE","NONE","0091.06","Tio Leos Mexican Restaurant","3202 HAWK ST SAN DIEGO, CA  92103",0,"cns/address"
"2013-07-09T",267,"","","2013-07-09T",193208,"ACTIVE",51,"1987-01-02T","2013-08-31T","MOOSE LODGE 2108","8670 MIRAMAR RD, STE S & T, SAN DIEGO, CA  92126",-1,-117.137187545,32.8943093797,6289334.99798,1906330.26605,"NONE","NONE","NONE","NONE","0083.50","Mira Mesa Moose Lodge 2108","",0,"cns/address"
"2013-07-09T",268,"","","2013-07-09T",194285,"ACTIVE",21,"1987-03-03T","2013-06-30T","VONS COMPANIES INC THE","3681 AVOCADO BLVD, LA MESA, CA  91941",-1,-116.958914209,32.7464869771,6343691.263,1852127.994,"NONE","NONE","NONE","NONE","0136.06","Vons 2365","PO BOX 29096 PHOENIX, AZ  85038-9096",0,"cns/address"
"2013-07-09T",269,"","","2013-07-09T",194289,"ACTIVE",21,"1987-02-27T","2013-06-30T","VONS COMPANIES INC THE","3993 GOVERNOR DR, SAN DIEGO, CA  92122",-1,-117.2031708,32.8534791239,6268945.47198,1891653.68519,"NONE","NONE","NONE","NONE","0083.45","Vons 2370","PO BOX 29096 PHOENIX, AZ  85038-9096",0,"cns/address"
"2013-07-09T",270,"","","2013-07-09T",194540,"ACTIVE",21,"1987-03-03T","2013-06-30T","VONS COMPANIES INC THE","950 N 2ND ST, EL CAJON, CA  92021",-1,-136.17877344,25.9454865109,-1.0,-1.0,"NONE","NONE","NONE","NONE","0165.02","Vons 2367","PO BOX 29096 PHOENIX, AZ  85038-9096",-1,"NONE"
"2013-07-09T",271,"","","2013-07-09T",194553,"ACTIVE",21,"1987-02-27T","2013-06-30T","VONS COMPANIES INC THE","351 W FELICITA AVE, ESCONDIDO, CA  92025",-1,-117.073065634,33.1027555386,6309616.169,1982009.33172,"NONE","NONE","NONE","NONE","0207.07","Vons 2344","PO BOX 29096 PHOENIX, AZ  85038-9096",2,"cns/address"
"2013-07-09T",272,"","","2013-07-09T",194554,"ACTIVE",21,"1987-02-27T","2013-06-30T","VONS COMPANIES INC THE","985 TAMARACK AVE, CARLSBAD, CA  92008",-1,-117.334441189,33.1521276592,6229763.5214,2000704.68206,"NONE","NONE","NONE","NONE","0178.10","Vons 2343","PO BOX 29096 PHOENIX, AZ  85038-9096",26,"cns/address"
"2013-07-09T",273,"","","2013-07-09T",194559,"ACTIVE",21,"1987-02-27T","2013-06-30T","VONS COMPANIES INC THE","1000 W EL NORTE PKWY, ESCONDIDO, CA  92026",-1,-117.042387796,33.1519574028,6319146.625,1999838.241,"NONE","NONE","NONE","NONE","0203.05","Vons 2345","PO BOX 29096 PHOENIX, AZ  85038-9096",0,"cns/segmid"
"2013-07-09T",274,"","","2013-07-09T",194570,"ACTIVE",21,"1987-07-10T","2013-06-30T","VONS COMPANIES INC THE","6155 EL CAJON BLVD, SAN DIEGO, CA  92115",-1,-117.065429615,32.7613084934,6310982.9356,1857759.99383,"NONE","NONE","NONE","NONE","0029.02","Vons 2352","PO BOX 29096 PHOENIX, AZ  85038-9096",0,"cns/address"
"2013-07-09T",275,"","","2013-07-09T",194571,"ACTIVE",21,"1987-02-23T","2013-06-30T","VONS COMPANIES INC THE","3610 ADAMS AVE, SAN DIEGO, CA  92116",-1,-117.114622051,32.7639217398,6295868.15532,1858832.6215,"NONE","NONE","NONE","NONE","0018.00","Vons 2358","PO BOX 29096 PHOENIX, AZ  85038-9096",0,"cns/address"
"2013-07-09T",276,"","","2013-07-09T",194574,"ACTIVE",21,"1987-03-02T","2013-06-30T","VONS COMPANIES INC THE","2606 DEL MAR HEIGHTS RD, SAN DIEGO, CA  92130",-1,-117.247074864,32.9500492269,6255798.82519,1926914.91358,"NONE","NONE","NONE","NONE","0083.24","Vons 2348","PO BOX 29096 PHOENIX, AZ  85038-9096",4,"cns/address"
"2013-07-09T",277,"","","2013-07-09T",194575,"ACTIVE",21,"1987-03-18T","2013-06-30T","VONS COMPANIES INC THE","4145 30TH ST, SAN DIEGO, CA  92104",-1,-117.12954845,32.753412928,6291247.39781,1855047.54256,"NONE","NONE","NONE","NONE","0013.00","Vons 2355","PO BOX 29096 PHOENIX, AZ  85038-9096",0,"cns/address"
"2013-07-09T",278,"","","2013-07-09T",194577,"ACTIVE",21,"1987-02-27T","2013-06-30T","VONS COMPANIES INC THE","6555 MISSION GORGE RD, SAN DIEGO, CA  92120",-1,-117.096461235,32.7923211471,6301534.83976,1869119.49383,"NONE","NONE","NONE","NONE","0096.04","Vons 2359","PO BOX 29096 PHOENIX, AZ  85038-9096",0,"cns/address"
"2013-07-09T",279,"","","2013-07-09T",194578,"ACTIVE",21,"1987-03-02T","2013-06-30T","VONS COMPANIES INC THE","665 SATURN BLVD, SAN DIEGO, CA  92154",-1,-117.090773351,32.5846851829,6302673.59152,1793560.01488,"NONE","NONE","NONE","NONE","0101.03","Vons 2338","PO BOX 29096 PHOENIX, AZ  85038-9096",10,"cns/address"
"2013-07-09T",280,"","","2013-07-09T",194582,"ACTIVE",86,"1987-03-03T","2013-06-30T","VONS COMPANIES INC THE","868 ORANGE AVE, CORONADO, CA  92118",-1,-117.179194029,32.6878953226,6275771.69941,1831342.51075,"NONE","NONE","NONE","NONE","0108.00","Vons 2364","PO BOX 29096 PHOENIX, AZ  85038-9096",0,"cns/address"
"2013-07-09T",281,"","","2013-07-09T",194583,"ACTIVE",21,"1987-03-03T","2013-06-30T","VONS COMPANIES INC THE","13438 POWAY RD, POWAY, CA  92064",-1,-117.037030532,32.9567273032,6320250.06439,1928793.37218,"NONE","NONE","NONE","NONE","0170.41","Vons 2349","PO BOX 29096 PHOENIX, AZ  85038-9096",118,"cns/address"
"2013-07-09T",282,"","","2013-07-09T",195049,"ACTIVE",47,"1987-03-20T","2013-09-30T","P B ROMAS INC","4110 MISSION BLVD, SAN DIEGO, CA  92109",-1,-117.254461786,32.7918590034,6252978.36713,1869382.33653,"NONE","NONE","NONE","NONE","0079.10","Tony Romas Restaurant","",0,"cns/address"
"2013-07-09T",283,"","","2013-07-09T",195927,"ACTIVE",41,"1986-11-25T","2013-07-31T","KARIM, ABDUL","7160 MIRAMAR RD, STE 100 & 102, SAN DIEGO, CA  92121",-1,-117.159457716,32.8807628689,6282456.11142,1901460.49696,"NONE","NONE","NONE","NONE","0083.50","Simas Grill & Deli","",0,"cns/address"
"2013-07-09T",284,"","","2013-07-09T",196202,"ACTIVE",54,"1987-08-06T","2013-12-31T","HORNBLOWER YACHTS INC","1715 STRAND WAY, # B2, CORONADO, CA  92118",-1,-117.173568583,32.6780454225,6277470.74974,1827743.41447,"NONE","NONE","NONE","NONE","0216.00","Hornblower Cruises & Events","PIER 3 ON THE EMBARCADERO SAN FRANCISCO, CA  94111-2027",614,"cns/seginterp"
"2013-07-09T",285,"","","2013-07-09T",197434,"ACTIVE",20,"1988-06-23T","2013-06-30T","CIRCLE K STORES INC","1161 E VALLEY PKWY, ESCONDIDO, CA  92025",-1,-117.056463077,33.0947934058,6314677.923,1979072.657,"NONE","NONE","NONE","NONE","0202.02","Circle K Store 8545","255 E RINCON ST, STE 100 CORONA, CA  92879-1368",0,"cns/segmid"
"2013-07-09T",286,"","","2013-07-09T",197754,"ACTIVE",47,"1987-03-25T","2014-04-30T","BRIGANTINE THE","2444 SAN DIEGO AVE, SAN DIEGO, CA  92110",-1,-117.193936485,32.7521724272,6271447.57895,1854769.31579,"NONE","NONE","NONE","NONE","0065.00","Miguels Cocina","7889 OSTROW ST SAN DIEGO, CA  92111-3602",62,"cns/seginterp"
"2013-07-09T",287,"","","2013-07-09T",198028,"ACTIVE",47,"1987-03-16T","2013-08-31T","BRIGANTINE THE","9350 FUERTE DR, LA MESA, CA  91941",-1,-116.996173019,32.7777663943,6332316.64196,1863588.54821,"NONE","NONE","NONE","NONE","0152.00","Brigantine The","7889 OSTROW ST SAN DIEGO, CA  92111-3602",5,"cns/address"
"2013-07-09T",288,"","","2013-07-09T",198548,"ACTIVE",20,"1987-03-26T","2013-06-30T","PNS STORES INC","1625 E VALLEY PKWY, ESCONDIDO, CA  92027",-1,-117.097130991,33.162632995,6302423.712,2003854.192,"NONE","NONE","NONE","NONE","0202.07","Big Lots 4007","300 PHILLIPI RD, ATTN TAX DEPT COLUMBUS, OH  43228-5311",0,"cns/segmid"
"2013-07-09T",289,"","","2013-07-09T",198901,"ACTIVE",47,"1987-05-11T","2014-01-31T","OSF INTERNATIONAL INC","275 5TH AVE, SAN DIEGO, CA  92101",-1,-117.093433684,33.1101735633,6303400.752,1984758.149,"NONE","NONE","NONE","NONE","0054.00","Old Spaghetti Factory The","0715 SW BANCROFT ST PORTLAND, OR  97239-4273",0,"cns/segmid"
"2013-07-09T",290,"","","2013-07-09T",199303,"ACTIVE",41,"1987-03-16T","2014-03-31T","PIZZA PASTA PLUS INC","879 W HARBOR DR, STE C, SAN DIEGO, CA  92101",-1,-117.171959787,32.708938197,6278065.17697,1838978.83951,"NONE","NONE","NONE","NONE","0054.00","Asassio Pizza Pasta Plus","",6,"cns/address"
"2013-07-09T",291,"","","2013-07-09T",200485,"ACTIVE",21,"1987-05-28T","2014-05-31T","BYUN, CHUNG HEE","3790 VOLTAIRE ST, SAN DIEGO, CA  92107",-1,-117.229729125,32.7412118187,6260405.75708,1850883.02813,"NONE","NONE","NONE","NONE","0069.00","Rushings Liquor & Deli","",0,"cns/address"
"2013-07-09T",292,"","","2013-07-09T",201110,"ACTIVE",51,"1988-03-24T","2013-10-31T","MOOSE LODGE 1852","3636 RUFFIN RD, SAN DIEGO, CA  92123",-1,-117.120021141,32.8099252927,6294348.0948,1875584.0732,"NONE","NONE","NONE","NONE","0085.11","Kearny Mesa Moose","",0,"cns/address"
"2013-07-09T",293,"","","2013-07-09T",202496,"SUREND",48,"1987-05-28T","2013-06-30T","BREFFNI ENTERPRISES INC","7057-61 EL CAJON BLVD, SAN DIEGO, CA  92115-1825",-1,-117.100517565,32.7551032224,6300177.828,1855588.479,"NONE","NONE","NONE","NONE","0029.05","Shamrock Shack Bar & Grill","462 MANZANO PL CHULA VISTA, CA  91910",0,"cns/segmid"
"2013-07-09T",294,"","","2013-07-09T",202686,"ACTIVE",41,"1987-07-09T","2013-12-31T","NORDSTROM INC","103 HORTON PLZ, SAN DIEGO, CA  92101",-1,-117.173027906,32.7389820431,6277833.395,1849912.674,"NONE","NONE","NONE","NONE","0053.00","Cafe Nordstrom","1600 7TH AVE, STE 2500, ATTN:  LICENSING UNIT SEATTLE, WA  98101",0,"cns/segmid"
"2013-07-09T",295,"","","2013-07-09T",202851,"ACTIVE",20,"1987-07-08T","2014-01-31T","SAROMA INC","747 E SAN YSIDRO BLVD, SAN DIEGO, CA  92173",-1,-117.029095716,32.5439500066,6321561.74603,1778591.36508,"NONE","NONE","NONE","NONE","0100.15","Mercado International 88","",166,"cns/seginterp"
"2013-07-09T",296,"","","2013-07-09T",203323,"ACTIVE",47,"1987-06-03T","2014-03-31T","BODEGA ESPANA INC","956 BROADWAY CIR, SAN DIEGO, CA  92101-6114",-1,-117.155894074,32.7154642454,6283027.611,1841309.91425,"NONE","NONE","NONE","NONE","0053.00","Dobsons Bar & Restaurant","",11,"cns/address"
"2013-07-09T",297,"","","2013-07-09T",203382,"ACTIVE",47,"1987-06-30T","2014-02-28T","M V PARTNERS L-PSHIP","901 CAMINO DEL RIO S, SAN DIEGO, CA  92108",-1,-136.17877344,25.9454865109,-1.0,-1.0,"NONE","NONE","NONE","NONE","0093.04","Hilton San Diego Mission Valley","101 MERRITT SEVEN 1ST FLOOR NORWALK, CT  06851",-1,"NONE"
"2013-07-09T",298,"","","2013-07-09T",204642,"ACTIVE",20,"1987-08-07T","2014-02-28T","JABRO, ROMMEL S","4127 MONROE AVE, SAN DIEGO, CA  92116",-1,-117.106527716,32.7586889241,6298340.78541,1856908.20624,"NONE","NONE","NONE","NONE","0021.00","Monroe Market","",0,"cns/address"
"2013-07-09T",299,"","","2013-07-09T",204935,"ACTIVE",48,"1987-12-21T","2014-05-31T","SEASIDE ENTERTAINMENT INC","126 CHESTERFIELD DR, ENCINITAS, CA  92007",-1,-117.281117519,33.0200067663,6245607.77745,1952469.16467,"NONE","NONE","NONE","NONE","0174.01","Shanty The","",0,"cns/address"
"2013-07-09T",300,"","","2013-07-09T",204979,"ACTIVE",41,"1987-07-31T","2013-09-30T","DOWNS, MICHAEL L","595 GRAND AVE, CARLSBAD, CA  92008",-1,-117.348977028,33.1614073121,6225350.44631,2004127.5076,"NONE","NONE","NONE","NONE","0179.00","Grand Deli The","",25,"cns/address"
"2013-07-09T",301,"","","2013-07-09T",205080,"ACTIVE",41,"1989-01-05T","2013-10-31T","SEN SING INC","39 E 7TH ST, NATIONAL CITY, CA  91950",-1,-136.17877344,25.9454865109,-1.0,-1.0,"NONE","NONE","NONE","NONE","0118.01","Oriental Cafe","",-1,"NONE"
"2013-07-09T",302,"","","2013-07-09T",205098,"ACTIVE",47,"1987-09-02T","2014-03-31T","LAS OLAS INC","2655 S HIGHWAY 101, ENCINITAS, CA  92007-2112",-1,-117.270705657,32.9876951578,6248684.038,1940681.793,"NONE","NONE","NONE","NONE","0173.03","Las Olas Mexican Restaurant","",0,"cns/segmid"
"2013-07-09T",303,"","","2013-07-09T",205776,"ACTIVE",41,"1987-08-26T","2013-06-30T","DO, AN HOI","2634 DEL MAR HEIGHTS RD, SAN DIEGO, CA  92014",-1,-117.246774499,32.9512759795,6255895.23085,1927360.36314,"NONE","NONE","NONE","NONE","0083.24","Le Bambou Restaurant","",2,"cns/address"
"2013-07-09T",304,"","","2013-07-09T",205870,"ACTIVE",47,"1988-10-11T","2013-10-31T","RODRIGUEZ, CELIA","4110 HOME AVE, SAN DIEGO, CA  92105",-1,-117.107031805,32.7239078945,6298081.79595,1844254.94726,"NONE","NONE","NONE","NONE","0025.02","Chiquitas Mexican Restaurant","",0,"cns/address"
"2013-07-09T",305,"","","2013-07-09T",207269,"ACTIVE",41,"1988-02-09T","2013-09-30T","NEIMAN MARCUS GROUP INC THE","7027 FRIARS RD, SAN DIEGO, CA  92108",-1,-117.166794333,32.7690053478,6279846.23469,1860819.2153,"NONE","NONE","NONE","NONE","0089.02","Neiman Marcus","1618 MAIN ST, ATTN LEGAL DEPT DALLAS, TX  75201",0,"cns/address"
"2013-07-09T",306,"","","2013-07-09T",207288,"ACTIVE",20,"1987-12-09T","2013-06-30T","PNS STORES INC","9340 MIRA MESA BLVD, SAN DIEGO, CA  92126",-1,-117.123578747,32.9183331065,6293585.4995,1915035.647,"NONE","NONE","NONE","NONE","0083.55","Big Lots 4127","300 PHILLIPI RD, ATTN TAX DEPT COLUMBUS, OH  43228-5311",0,"cns/address"
"2013-07-09T",307,"","","2013-07-09T",207594,"ACTIVE",41,"1987-11-09T","2013-12-31T","NORDSTROM INC","270 E VIA RANCHO PKWY, ESCONDIDO, CA  92025",-1,-117.312040071,33.2211096564,6236875.005,2025732.217,"NONE","NONE","NONE","NONE","0207.08","Cafe Nordstrom","1600 7TH AVE, STE 2500, ATTN:  LICENSING UNIT SEATTLE, WA  98101",0,"cns/segmid"
"2013-07-09T",308,"","","2013-07-09T",207597,"ACTIVE",47,"1987-11-05T","2013-07-31T","ORANGE MOOSE INC","1165 GARNET AVE, SAN DIEGO, CA  92109",-1,-117.248419862,32.7978967589,6254856.13279,1871561.21749,"NONE","NONE","NONE","NONE","0079.10","Big Berthas Freds Mexican Cafe Typhoon Saloon","310 LEWERS ST HONOLULU, HI  96815-2343",0,"cns/address"
"2013-07-09T",309,"","","2013-07-09T",207685,"ACTIVE",20,"1989-05-22T","2013-06-30T","CIRCLE K STORES INC","10520 CAMINO RUIZ, SAN DIEGO, CA  92126",-1,-136.17877344,25.9454865109,-1.0,-1.0,"NONE","NONE","NONE","NONE","0083.51","Circle K Store 8688","255 E RINCON ST, STE 100 CORONA, CA  92879-1368",-1,"NONE"
"2013-07-09T",310,"","","2013-07-09T",207810,"ACTIVE",40,"1987-11-30T","2013-10-31T","BRUMFIELD, JOHN L","10999 SORRENTO VALLEY RD, SAN DIEGO, CA  92121",-1,-117.222359297,32.901256713,6263214.919,1909091.06,"NONE","NONE","NONE","NONE","0083.39","Sorrento Valley Racquetball & Fitness Center","",0,"cns/address"
"2013-07-09T",311,"","","2013-07-09T",208659,"ACTIVE",47,"1987-10-09T","2013-09-30T","SAN DIEGO TENNIS AND RACQUET CLUB L-PSHIP","4848 TECOLOTE RD, SAN DIEGO, CA  92110",-1,-117.199528883,32.7764819279,6269808.75724,1863629.48765,"NONE","NONE","NONE","NONE","0091.06","San Diego Tennis & Racquet Club","",0,"cns/address"
"2013-07-09T",312,"","","2013-07-09T",209791,"ACTIVE",41,"1989-01-19T","2014-01-31T","FAMILY ROUND TABLE","3250 GOVERNOR DR, SAN DIEGO, CA  92122",-1,-117.214891296,32.8519395703,6265340.99607,1891126.65505,"NONE","NONE","NONE","NONE","0083.07","Family Round Table Pizza","",0,"cns/address"
"2013-07-09T",313,"","","2013-07-09T",211561,"ACTIVE",48,"1988-01-25T","2014-01-31T","IP, SUE LI","3600 MAIN ST, SAN DIEGO, CA  92113",-1,-117.116611681,32.6868037552,6295023.3128,1830779.53934,"NONE","NONE","NONE","NONE","0036.01","Petes Cocktails","",0,"cns/address"
"2013-07-09T",314,"","","2013-07-09T",211600,"ACTIVE",21,"1988-03-10T","2013-06-30T","VONS COMPANIES INC THE","4725 CLAIREMONT DR, SAN DIEGO, CA  92117",-1,-117.205010088,32.8302042328,6268303.07244,1883190.72222,"NONE","NONE","NONE","NONE","0085.02","Vons 2120","PO BOX 29096 PHOENIX, AZ  85038-9096",0,"cns/address"
"2013-07-09T",315,"","","2013-07-09T",211881,"ACTIVE",52,"1988-03-31T","2014-01-31T","AMERICAN LEGION POST 552","853 TURQUOISE ST, SAN DIEGO, CA  92109",-1,-117.258012155,32.8086377756,6251946.33147,1875497.47671,"NONE","NONE","NONE","NONE","0080.06","Pacific Beach Post 5985 Vfw","",0,"cns/address"
"2013-07-09T",316,"","","2013-07-09T",212800,"ACTIVE",21,"1989-05-08T","2013-06-30T","THRIFTY PAYLESS INC","740 OTAY LAKES RD, CHULA VISTA, CA  91910",-1,-117.00104288,32.6458748733,6330474.161,1815612.213,"NONE","NONE","NONE","NONE","0134.21","Rite Aid Store 5614","2600 CAPITOL AVE, STE 300 SACRAMENTO, CA  95816-5930",0,"cns/segmid"
"2013-07-09T",317,"","","2013-07-09T",212806,"ACTIVE",21,"1988-02-17T","2013-06-30T","LEUCADIA LIQUOR INC","640 N COAST HIGHWAY 101, ENCINITAS, CA  92024",-1,-117.300800059,33.0606756592,6239724.0,1967326.001,"NONE","NONE","NONE","NONE","0177.02","Leucadia Liquor Inc","",224,"cns/seginterp"
"2013-07-09T",318,"","","2013-07-09T",212962,"ACTIVE",20,"1988-03-14T","2013-06-30T","PNS STORES INC","1410 E PLAZA BLVD, NATIONAL CITY, CA  91950",-1,-117.089336429,32.6765240093,6303385.20386,1826970.74884,"NONE","NONE","NONE","NONE","0117.00","Big Lots 4126","300 PHILLIPI RD, ATTN TAX DEPT COLUMBUS, OH  43228-5311",130,"cns/address"
"2013-07-09T",319,"","","2013-07-09T",213003,"ACTIVE",47,"1988-02-05T","2014-03-31T","PLANTATION RESTAURANT GROUP INC","8915 CARLTON HILLS BLVD, SANTEE, CA  92071",-1,-116.995385061,32.8393147986,6332718.92354,1885980.40935,"NONE","NONE","NONE","NONE","0166.14","Marietas Restaurant","",0,"cns/address"
"2013-07-09T",320,"","","2013-07-09T",213398,"ACTIVE",54,"1988-03-07T","2013-08-31T","BAHIA STERNWHEELERS INC","998 W MISSION BAY DR, SAN DIEGO, CA  92109",-1,-117.246108521,32.7741610358,6255483.87225,1862918.66049,"NONE","NONE","NONE","NONE","0076.00","Bahia Belle","",0,"cns/address"
"2013-07-09T",321,"","","2013-07-09T",213846,"ACTIVE",47,"1988-04-04T","2013-06-30T","AMF BOWLING CENTERS INC","945 W SAN MARCOS BLVD, SAN MARCOS, CA  92078",-1,-117.187077856,33.1354359184,6274809.52494,1994194.36897,"NONE","NONE","NONE","NONE","0200.29","Amf Eagle Bowl","7313 BELL CREEK RD, ATTN TAX & LICENSING MECHANICSVILLE, VA  23111",15,"cns/address"
"2013-07-09T",322,"","","2013-07-09T",214429,"SUREND",20,"1988-07-01T","2013-06-30T","7 ELEVEN INC","3070 REYNARD WAY, SAN DIEGO, CA  92103-5435",-1,-117.17019781,32.7373915137,6278698.52618,1849326.29545,"NONE","NONE","NONE","NONE","0061.00","7 Eleven 2121 19974","PO BOX 219088 DALLAS, TX  75221-9088",0,"cns/address"
"2013-07-09T",323,"","","2013-07-09T",214664,"SUREND",20,"1988-07-01T","2013-06-30T","7 ELEVEN INC","201 OAK AVE, CARLSBAD, CA  92008",-1,-117.35028114,33.1567731436,6224933.57477,2002445.65284,"NONE","NONE","NONE","NONE","0180.00","7 Eleven 2111 13601","PO BOX 219088 DALLAS, TX  75221-9088",0,"cns/address"
"2013-07-09T",324,"","","2013-07-09T",215061,"ACTIVE",20,"1988-07-01T","2013-06-30T","7 ELEVEN INC","4205 VOLTAIRE ST, SAN DIEGO, CA  92107",-1,-117.235226748,32.7438034891,6258724.2309,1851841.88569,"NONE","NONE","NONE","NONE","0074.00","7 Eleven 2121 18824","PO BOX 219088 DALLAS, TX  75221-9088",0,"cns/address"
"2013-07-09T",325,"","","2013-07-09T",215077,"ACTIVE",20,"1988-07-01T","2013-06-30T","7 ELEVEN INC","3019 MEADE AVE, SAN DIEGO, CA  92116",-1,-117.129903532,32.7570613818,6291149.43211,1856375.89363,"NONE","NONE","NONE","NONE","0012.00","7 Eleven 2121 21799","PO BOX 219088 DALLAS, TX  75221-9088",0,"cns/address"
"2013-07-09T",326,"","","2013-07-09T",215140,"ACTIVE",20,"1988-07-01T","2013-06-30T","7 ELEVEN INC","1030 N BROADWAY, ESCONDIDO, CA  92026",-1,-117.086657444,33.1342309882,6305545.88287,1993494.49122,"NONE","NONE","NONE","NONE","0201.08","7 Eleven 2111 22894","PO BOX 219088 DALLAS, TX  75221-9088",0,"cns/address"
